$GPRMC,062612.000,A,5057.0415,N,00707.0683,E,18.49,50.36,230408,,,A*6C
$GPGGA,062613.000,5057.0454,N,00707.0727,E,1,08,1.0,79.7,M,47.7,M,,0000*68
$GPGSA,A,3,03,06,32,14,19,11,18,22,,,,,1.7,1.0,1.4*30
$GPRMC,062613.000,A,5057.0454,N,00707.0727,E,17.05,24.44,230408,,,A*66
$GPGGA,062614.000,5057.0500,N,00707.0743,E,1,08,1.0,80.1,M,47.7,M,,0000*6D
$GPGSA,A,3,03,06,32,14,19,11,18,22,,,,,1.7,1.0,1.4*30
$GPRMC,062614.000,A,5057.0500,N,00707.0743,E,17.63,4.96,230408,,,A*5E
$GPGGA,062615.000,5057.0552,N,00707.0739,E,1,08,1.0,80.8,M,47.7,M,,0000*6F
$GPGSA,A,3,03,06,32,14,19,11,18,22,,,,,1.7,1.0,1.4*30
$GPRMC,062615.000,A,5057.0552,N,00707.0739,E,19.52,353.02,230408,,,A*55
$GPGGA,062616.000,5057.0608,N,00707.0725,E,1,08,1.0,81.2,M,47.7,M,,0000*66
$GPGSA,A,3,03,06,32,14,19,11,18,22,,,,,1.7,1.0,1.4*30
$GPRMC,062616.000,A,5057.0608,N,00707.0725,E,20.77,350.54,230408,,,A*5A
$GPGGA,062617.000,5057.0667,N,00707.0703,E,1,08,1.0,80.8,M,47.7,M,,0000*61
$GPGSA,A,3,03,06,32,14,19,11,18,22,,,,,1.7,1.0,1.4*30
$GPGSV,3,1,09,19,82,241,43,03,55,155,41,22,54,072,44,32,46,185,41*79
$GPGSV,3,2,09,14,21,117,24,11,20,271,42,18,19,047,28,06,15,135,21*78
$GPGSV,3,3,09,28,09,329,34*4C
$GPRMC,062617.000,A,5057.0667,N,00707.0703,E,21.35,349.11,230408,,,A*58
$GPGGA,062618.000,5057.0728,N,00707.0680,E,1,08,1.0,80.5,M,47.7,M,,0000*63
$GPGSA,A,3,03,06,32,14,19,11,18,22,,,,,1.7,1.0,1.4*30
$GPRMC,062618.000,A,5057.0728,N,00707.0680,E,22.57,347.38,230408,,,A*55
$GPGGA,062619.000,5057.0789,N,00707.0655,E,1,08,1.0,80.5,M,47.7,M,,0000*61
$GPGSA,A,3,03,06,32,14,19,11,18,22,,,,,1.7,1.0,1.4*30
$GPRMC,062619.000,A,5057.0789,N,00707.0655,E,22.26,345.70,230408,,,A*5F
$GPGGA,062620.000,5057.0850,N,00707.0627,E,1,08,1.0,80.3,M,47.7,M,,0000*63
$GPGSA,A,3,03,06,32,14,19,11,18,22,,,,,1.7,1.0,1.4*30
$GPRMC,062620.000,A,5057.0850,N,00707.0627,E,22.62,344.59,230408,,,A*51
$GPGGA,062621.000,5057.0912,N,00707.0599,E,1,08,1.0,80.1,M,47.7,M,,0000*61
$GPGSA,A,3,03,06,32,14,19,11,18,22,,,,,1.7,1.0,1.4*30
$GPRMC,062621.000,A,5057.0912,N,00707.0599,E,23.04,344.63,230408,,,A*59
$GPGGA,062622.000,5057.0975,N,00707.0571,E,1,08,1.0,80.0,M,47.7,M,,0000*64
$GPGSA,A,3,03,06,32,14,19,11,18,22,,,,,1.7,1.0,1.4*30
$GPGSV,3,1,09,19,82,241,44,03,55,155,42,22,54,072,39,32,46,185,41*77
$GPGSV,3,2,09,14,21,117,24,11,20,271,37,18,19,047,32,06,15,135,25*75
$GPGSV,3,3,09,28,09,329,35*4D
$GPRMC,062622.000,A,5057.0975,N,00707.0571,E,23.74,344.44,230408,,,A*5F
$GPGGA,062623.000,5057.1039,N,00707.0541,E,1,08,1.0,80.0,M,47.7,M,,0000*66
$GPGSA,A,3,03,06,32,14,19,11,18,22,,,,,1.7,1.0,1.4*30
$GPRMC,062623.000,A,5057.1039,N,00707.0541,E,24.37,344.08,230408,,,A*55
$GPGGA,062624.000,5057.1105,N,00707.0508,E,1,08,1.0,79.7,M,47.7,M,,0000*63
$GPGSA,A,3,03,06,32,14,19,11,18,22,,,,,1.7,1.0,1.4*30
$GPRMC,062624.000,A,5057.1105,N,00707.0508,E,25.17,341.96,230408,,,A*50
$GPGGA,062625.000,5057.1171,N,00707.0469,E,1,08,1.0,79.6,M,47.7,M,,0000*66
$GPGSA,A,3,03,06,32,14,19,11,18,22,,,,,1.7,1.0,1.4*30
$GPRMC,062625.000,A,5057.1171,N,00707.0469,E,25.02,338.45,230408,,,A*50
$GPGGA,062626.000,5057.1234,N,00707.0425,E,1,08,1.0,79.4,M,47.7,M,,0000*6D
$GPGSA,A,3,03,06,32,14,19,11,18,22,,,,,1.7,1.0,1.4*30
$GPRMC,062626.000,A,5057.1234,N,00707.0425,E,24.13,333.98,230408,,,A*53
$GPGGA,062627.000,5057.1290,N,00707.0375,E,1,08,1.0,79.2,M,47.7,M,,0000*66
$GPGSA,A,3,03,06,32,14,19,11,18,22,,,,,1.7,1.0,1.4*30
$GPGSV,3,1,09,19,82,241,44,03,55,155,42,22,54,072,41,32,46,185,41*78
$GPGSV,3,2,09,14,21,117,33,11,20,271,38,18,19,047,32,06,15,135,27*7E
$GPGSV,3,3,09,28,09,329,42*4D
$GPRMC,062627.000,A,5057.1290,N,00707.0375,E,22.59,329.69,230408,,,A*53
$GPGGA,062628.000,5057.1341,N,00707.0325,E,1,08,1.0,78.9,M,47.7,M,,0000*6B
$GPGSA,A,3,03,06,32,14,19,11,18,22,,,,,1.7,1.0,1.4*30
$GPRMC,062628.000,A,5057.1341,N,00707.0325,E,20.05,327.45,230408,,,A*5F
$GPGGA,062629.000,5057.1384,N,00707.0279,E,1,08,1.0,78.5,M,47.7,M,,0000*67
$GPGSA,A,3,03,06,32,14,19,11,18,22,,,,,1.7,1.0,1.4*30
$GPRMC,062629.000,A,5057.1384,N,00707.0279,E,17.75,325.73,230408,,,A*5B
$GPGGA,062630.000,5057.1424,N,00707.0234,E,1,08,1.0,78.0,M,47.7,M,,0000*6E
$GPGSA,A,3,03,06,32,14,19,11,18,22,,,,,1.7,1.0,1.4*30
$GPRMC,062630.000,A,5057.1424,N,00707.0234,E,16.07,326.02,230408,,,A*56
$GPGGA,062631.000,5057.1459,N,00707.0196,E,1,08,1.0,77.9,M,47.7,M,,0000*68
$GPGSA,A,3,03,06,32,14,19,11,18,22,,,,,1.7,1.0,1.4*30
$GPRMC,062631.000,A,5057.1459,N,00707.0196,E,15.03,327.16,230408,,,A*55
$GPGGA,062632.000,5057.1494,N,00707.0160,E,1,08,1.0,77.5,M,47.7,M,,0000*6F
$GPGSA,A,3,03,06,32,14,19,11,18,22,,,,,1.7,1.0,1.4*30
$GPGSV,3,1,09,19,82,241,43,03,55,155,42,22,54,072,39,32,46,185,42*73
$GPGSV,3,2,09,14,21,117,30,11,20,271,34,18,19,047,26,06,15,135,28*7B
$GPGSV,3,3,09,28,09,329,41*4E
$GPRMC,062632.000,A,5057.1494,N,00707.0160,E,14.33,328.58,230408,,,A*59
$GPGGA,062633.000,5057.1527,N,00707.0127,E,1,08,1.0,77.6,M,47.7,M,,0000*67
$GPGSA,A,3,03,06,32,14,19,11,18,22,,,,,1.7,1.0,1.4*30
$GPRMC,062633.000,A,5057.1527,N,00707.0127,E,13.73,328.23,230408,,,A*5D
$GPGGA,062634.000,5057.1559,N,00707.0091,E,1,08,1.0,77.2,M,47.7,M,,0000*61
$GPGSA,A,3,03,06,32,14,19,11,18,22,,,,,1.7,1.0,1.4*30
$GPRMC,062634.000,A,5057.1559,N,00707.0091,E,13.40,327.21,230408,,,A*52
$GPGGA,062635.000,5057.1590,N,00707.0057,E,1,08,1.0,76.6,M,47.7,M,,0000*6A
$GPGSA,A,3,03,06,32,14,19,11,18,22,,,,,1.7,1.0,1.4*30
$GPRMC,062635.000,A,5057.1590,N,00707.0057,E,12.69,327.25,230408,,,A*52
$GPGGA,062636.000,5057.1615,N,00707.0028,E,1,08,1.0,76.3,M,47.7,M,,0000*6A
$GPGSA,A,3,03,06,32,14,19,11,18,22,,,,,1.7,1.0,1.4*30
$GPRMC,062636.000,A,5057.1615,N,00707.0028,E,9.59,324.28,230408,,,A*60
$GPGGA,062637.000,5057.1635,N,00707.0007,E,1,08,1.0,76.0,M,47.7,M,,0000*67
$GPGSA,A,3,03,06,32,14,19,11,18,22,,,,,1.7,1.0,1.4*30
$GPGSV,3,1,09,19,82,241,43,03,55,155,42,22,54,072,40,32,46,185,42*7D
$GPGSV,3,2,09,14,21,117,35,11,20,271,37,18,19,047,34,06,15,135,28*7E
$GPGSV,3,3,09,28,09,329,41*4E
$GPRMC,062637.000,A,5057.1635,N,00707.0007,E,7.13,334.95,230408,,,A*69
$GPGGA,062638.000,5057.1652,N,00706.9999,E,1,08,1.0,75.6,M,47.7,M,,0000*6A
$GPGSA,A,3,03,06,32,14,19,11,18,22,,,,,1.7,1.0,1.4*30
$GPRMC,062638.000,A,5057.1652,N,00706.9999,E,5.93,1.14,230408,,,A*67
$GPGGA,062639.000,5057.1667,N,00707.0006,E,1,08,1.0,75.6,M,47.7,M,,0000*6A
$GPGSA,A,3,03,06,32,14,19,11,18,22,,,,,1.7,1.0,1.4*30
$GPRMC,062639.000,A,5057.1667,N,00707.0006,E,6.76,32.44,230408,,,A*5A
$GPGGA,062640.000,5057.1683,N,00707.0029,E,1,08,1.0,75.3,M,47.7,M,,0000*66
$GPGSA,A,3,03,06,32,14,19,11,18,22,,,,,1.7,1.0,1.4*30
$GPRMC,062640.000,A,5057.1683,N,00707.0029,E,8.91,53.18,230408,,,A*5A
$GPGGA,062641.000,5057.1699,N,00707.0063,E,1,08,1.0,75.2,M,47.7,M,,0000*63
$GPGSA,A,3,03,06,32,14,19,11,18,22,,,,,1.7,1.0,1.4*30
$GPRMC,062641.000,A,5057.1699,N,00707.0063,E,10.46,52.79,230408,,,A*6B
$GPGGA,062642.000,5057.1718,N,00707.0099,E,1,08,1.0,75.1,M,47.7,M,,0000*6E
$GPGSA,A,3,03,06,32,14,19,11,18,22,,,,,1.7,1.0,1.4*30
$GPGSV,3,1,09,19,82,241,43,03,55,155,42,22,54,072,41,32,46,185,43*7D
$GPGSV,3,2,09,14,21,117,39,11,20,271,35,18,19,047,33,06,15,135,30*7E
$GPGSV,3,3,09,28,09,329,19*43
$GPRMC,062642.000,A,5057.1718,N,00707.0099,E,11.45,47.37,230408,,,A*69
$GPGGA,062643.000,5057.1740,N,00707.0136,E,1,08,1.0,75.0,M,47.7,M,,0000*67
$GPGSA,A,3,03,06,32,14,19,11,18,22,,,,,1.7,1.0,1.4*30
$GPRMC,062643.000,A,5057.1740,N,00707.0136,E,11.37,47.88,230408,,,A*60
$GPGGA,062644.000,5057.1759,N,00707.0176,E,1,08,1.0,75.2,M,47.7,M,,0000*6E
$GPGSA,A,3,03,06,32,14,19,11,18,22,,,,,1.7,1.0,1.4*30
$GPRMC,062644.000,A,5057.1759,N,00707.0176,E,11.82,53.31,230408,,,A*62
$GPGGA,062645.000,5057.1778,N,00707.0220,E,1,08,1.0,75.1,M,47.7,M,,0000*6F
$GPGSA,A,3,03,06,32,14,19,11,18,22,,,,,1.7,1.0,1.4*30
$GPRMC,062645.000,A,5057.1778,N,00707.0220,E,12.28,54.91,230408,,,A*6E
$GPGGA,062646.000,5057.1798,N,00707.0266,E,1,08,1.0,75.3,M,47.7,M,,0000*62
$GPGSA,A,3,03,06,32,14,19,11,18,22,,,,,1.7,1.0,1.4*30
$GPRMC,062646.000,A,5057.1798,N,00707.0266,E,13.29,55.74,230408,,,A*6B
$GPGGA,062647.000,5057.1821,N,00707.0319,E,1,08,1.0,75.5,M,47.7,M,,0000*61
$GPGSA,A,3,03,06,32,14,19,11,18,22,,,,,1.7,1.0,1.4*30
$GPGSV,3,1,09,19,82,239,43,03,55,155,42,22,54,072,42,32,47,185,43*70
$GPGSV,3,2,09,14,21,117,32,11,20,271,37,18,19,047,42,06,15,135,35*74
$GPGSV,3,3,09,28,09,329,14*4E
$GPRMC,062647.000,A,5057.1821,N,00707.0319,E,15.89,55.40,230408,,,A*65
$GPGGA,062648.000,5057.1847,N,00707.0377,E,1,08,1.0,75.5,M,47.7,M,,0000*66
$GPGSA,A,3,03,06,32,14,19,11,18,22,,,,,1.7,1.0,1.4*30
$GPRMC,062648.000,A,5057.1847,N,00707.0377,E,16.01,54.72,230408,,,A*61
$GPGGA,062649.000,5057.1873,N,00707.0436,E,1,08,1.0,75.6,M,47.7,M,,0000*61
$GPGSA,A,3,03,06,32,14,19,11,18,22,,,,,1.7,1.0,1.4*30
$GPRMC,062649.000,A,5057.1873,N,00707.0436,E,16.64,54.78,230408,,,A*6C
$GPGGA,062650.000,5057.1899,N,00707.0498,E,1,08,1.0,75.7,M,47.7,M,,0000*68
$GPGSA,A,3,03,06,32,14,19,11,18,22,,,,,1.7,1.0,1.4*30
$GPRMC,062650.000,A,5057.1899,N,00707.0498,E,17.13,57.19,230408,,,A*61
$GPGGA,062651.000,5057.1923,N,00707.0560,E,1,08,1.0,75.9,M,47.7,M,,0000*61
$GPGSA,A,3,03,06,32,14,19,11,18,22,,,,,1.7,1.0,1.4*30
$GPRMC,062651.000,A,5057.1923,N,00707.0560,E,16.06,60.78,230408,,,A*60
$GPGGA,062652.000,5057.1943,N,00707.0620,E,1,07,1.1,76.1,M,47.7,M,,0000*66
$GPGSA,A,3,03,06,32,19,11,18,22,,,,,,1.8,1.1,1.4*3B
$GPGSV,3,1,09,19,82,239,43,03,55,155,42,22,54,072,42,32,47,185,42*71
$GPGSV,3,2,09,14,21,117,26,11,20,271,27,18,19,047,41,06,15,135,27*70
$GPGSV,3,3,09,28,09,329,15*4F
$GPRMC,062652.000,A,5057.1943,N,00707.0620,E,14.79,62.49,230408,,,A*68
$GPGGA,062653.000,5057.1959,N,00707.0671,E,1,08,1.0,76.3,M,47.7,M,,0000*64
$GPGSA,A,3,03,06,32,14,19,11,18,22,,,,,1.7,1.0,1.4*30
$GPRMC,062653.000,A,5057.1959,N,00707.0671,E,11.45,62.86,230408,,,A*6F
$GPGGA,062654.000,5057.1971,N,00707.0706,E,1,08,1.0,76.6,M,47.7,M,,0000*6D
$GPGSA,A,3,03,06,32,14,19,11,18,22,,,,,1.7,1.0,1.4*30
$GPRMC,062654.000,A,5057.1971,N,00707.0706,E,7.00,61.92,230408,,,A*53
$GPGGA,062655.000,5057.1979,N,00707.0725,E,1,08,1.0,76.7,M,47.7,M,,0000*64
$GPGSA,A,3,03,06,32,14,19,11,18,22,,,,,1.7,1.0,1.4*30
$GPRMC,062655.000,A,5057.1979,N,00707.0725,E,4.09,47.56,230408,,,A*5D
$GPGGA,062656.000,5057.1989,N,00707.0736,E,1,08,1.0,76.9,M,47.7,M,,0000*64
$GPGSA,A,3,03,06,32,14,19,11,18,22,,,,,1.7,1.0,1.4*30
$GPRMC,062656.000,A,5057.1989,N,00707.0736,E,5.17,26.44,230408,,,A*59
$GPGGA,062657.000,5057.2005,N,00707.0739,E,1,08,1.0,76.9,M,47.7,M,,0000*64
$GPGSA,A,3,03,06,32,14,19,11,18,22,,,,,1.7,1.0,1.4*30
$GPGSV,3,1,09,19,82,239,43,03,55,155,41,22,54,072,42,32,47,185,42*72
$GPGSV,3,2,09,14,21,117,41,11,20,271,29,18,19,047,35,06,15,135,37*7D
$GPGSV,3,3,09,28,09,329,13*49
$GPRMC,062657.000,A,5057.2005,N,00707.0739,E,6.86,358.05,230408,,,A*6D
$GPGGA,062658.000,5057.2026,N,00707.0727,E,1,08,1.0,77.4,M,47.7,M,,0000*69
$GPGSA,A,3,03,06,32,14,19,11,18,22,,,,,1.7,1.0,1.4*30
$GPRMC,062658.000,A,5057.2026,N,00707.0727,E,9.80,329.61,230408,,,A*61
$GPGGA,062659.000,5057.2052,N,00707.0704,E,1,08,1.0,77.9,M,47.7,M,,0000*67
$GPGSA,A,3,03,06,32,14,19,11,18,22,,,,,1.7,1.0,1.4*30
$GPRMC,062659.000,A,5057.2052,N,00707.0704,E,11.58,330.54,230408,,,A*50
$GPGGA,062700.000,5057.2080,N,00707.0679,E,1,08,1.0,78.3,M,47.7,M,,0000*6B
$GPGSA,A,3,03,06,32,14,19,11,18,22,,,,,1.7,1.0,1.4*30
$GPRMC,062700.000,A,5057.2080,N,00707.0679,E,12.14,333.30,230408,,,A*53
$GPGGA,062701.000,5057.2111,N,00707.0655,E,1,08,1.0,78.6,M,47.7,M,,0000*68
$GPGSA,A,3,03,06,32,14,19,11,18,22,,,,,1.7,1.0,1.4*30
$GPRMC,062701.000,A,5057.2111,N,00707.0655,E,12.11,336.12,230408,,,A*55
$GPGGA,062702.000,5057.2141,N,00707.0637,E,1,08,1.0,78.9,M,47.7,M,,0000*65
$GPGSA,A,3,03,06,32,14,19,11,18,22,,,,,1.7,1.0,1.4*30
$GPGSV,3,1,09,19,82,239,43,03,55,155,42,22,54,072,43,32,47,185,42*70
$GPGSV,3,2,09,14,21,117,27,11,20,271,30,18,19,047,32,06,15,135,32*77
$GPGSV,3,3,09,28,09,329,26*4F
$GPRMC,062702.000,A,5057.2141,N,00707.0637,E,11.86,343.91,230408,,,A*53
$GPGGA,062703.000,5057.2173,N,00707.0626,E,1,08,1.0,79.4,M,47.7,M,,0000*69
$GPGSA,A,3,03,06,32,14,19,11,18,22,,,,,1.7,1.0,1.4*30
$GPRMC,062703.000,A,5057.2173,N,00707.0626,E,11.67,353.77,230408,,,A*55
$GPGGA,062704.000,5057.2205,N,00707.0624,E,1,08,1.0,80.1,M,47.7,M,,0000*6D
$GPGSA,A,3,03,06,32,14,19,11,18,22,,,,,1.7,1.0,1.4*30
$GPRMC,062704.000,A,5057.2205,N,00707.0624,E,11.74,1.32,230408,,,A*55
$GPGGA,062705.000,5057.2236,N,00707.0628,E,1,08,1.0,81.1,M,47.7,M,,0000*61
$GPGSA,A,3,03,06,32,14,19,11,18,22,,,,,1.7,1.0,1.4*30
$GPRMC,062705.000,A,5057.2236,N,00707.0628,E,10.88,5.67,230408,,,A*5E
$GPGGA,062706.000,5057.2262,N,00707.0632,E,1,08,1.0,81.5,M,47.7,M,,0000*6C
$GPGSA,A,3,03,06,32,14,19,11,18,22,,,,,1.7,1.0,1.4*30
$GPRMC,062706.000,A,5057.2262,N,00707.0632,E,8.14,9.51,230408,,,A*62
$GPGGA,062707.000,5057.2280,N,00707.0638,E,1,08,1.0,82.0,M,47.7,M,,0000*6D
$GPGSA,A,3,03,06,32,14,19,11,18,22,,,,,1.7,1.0,1.4*30
$GPGSV,3,1,09,19,82,239,43,03,55,155,42,22,54,072,43,32,47,185,40*72
$GPGSV,3,2,09,14,21,117,26,11,20,271,35,18,19,047,34,06,15,135,26*70
$GPGSV,3,3,09,28,09,329,25*4C
$GPRMC,062707.000,A,5057.2280,N,00707.0638,E,5.27,21.80,230408,,,A*5E
$GPGGA,062708.000,5057.2293,N,00707.0650,E,1,08,1.0,82.5,M,47.7,M,,0000*6B
$GPGSA,A,3,03,06,32,14,19,11,18,22,,,,,1.7,1.0,1.4*30
$GPRMC,062708.000,A,5057.2293,N,00707.0650,E,6.24,42.22,230408,,,A*50
$GPGGA,062709.000,5057.2303,N,00707.0674,E,1,08,1.0,82.7,M,47.7,M,,0000*66
$GPGSA,A,3,03,06,32,14,19,11,18,22,,,,,1.7,1.0,1.4*30
$GPRMC,062709.000,A,5057.2303,N,00707.0674,E,7.43,67.56,230408,,,A*5B
$GPGGA,062710.000,5057.2306,N,00707.0705,E,1,08,1.0,82.6,M,47.7,M,,0000*6D
$GPGSA,A,3,03,06,32,14,19,11,18,22,,,,,1.7,1.0,1.4*30
$GPRMC,062710.000,A,5057.2306,N,00707.0705,E,7.94,93.67,230408,,,A*52
$GPGGA,062711.000,5057.2303,N,00707.0741,E,1,08,1.0,82.7,M,47.7,M,,0000*68
$GPGSA,A,3,03,06,32,14,19,11,18,22,,,,,1.7,1.0,1.4*30
$GPRMC,062711.000,A,5057.2303,N,00707.0741,E,9.42,96.77,230408,,,A*57
$GPGGA,062712.000,5057.2301,N,00707.0783,E,1,08,1.0,82.7,M,47.7,M,,0000*67
$GPGSA,A,3,03,06,32,14,19,11,18,22,,,,,1.7,1.0,1.4*30
$GPGSV,3,1,09,19,82,239,44,03,55,155,42,22,54,072,42,32,47,185,42*76
$GPGSV,3,2,09,14,21,117,38,11,20,271,35,18,19,047,26,06,15,135,26*7C
$GPGSV,3,3,09,28,09,329,20*49
$GPRMC,062712.000,A,5057.2301,N,00707.0783,E,10.58,94.61,230408,,,A*6E
$GPGGA,062713.000,5057.2300,N,00707.0828,E,1,08,1.0,82.8,M,47.7,M,,0000*66
$GPGSA,A,3,03,06,32,14,19,11,18,22,,,,,1.7,1.0,1.4*30
$GPRMC,062713.000,A,5057.2300,N,00707.0828,E,10.98,91.55,230408,,,A*6E
$GPGGA,062714.000,5057.2299,N,00707.0877,E,1,08,1.0,82.7,M,47.7,M,,0000*65
$GPGSA,A,3,03,06,32,14,19,11,18,22,,,,,1.7,1.0,1.4*30
$GPRMC,062714.000,A,5057.2299,N,00707.0877,E,11.60,90.65,230408,,,A*66
$GPGGA,062715.000,5057.2299,N,00707.0927,E,1,08,1.0,82.8,M,47.7,M,,0000*6F
$GPGSA,A,3,03,06,32,14,19,11,18,22,,,,,1.7,1.0,1.4*30
$GPRMC,062715.000,A,5057.2299,N,00707.0927,E,12.09,91.75,230408,,,A*6F
$GPGGA,062716.000,5057.2298,N,00707.0978,E,1,08,1.0,83.0,M,47.7,M,,0000*6E
$GPGSA,A,3,03,06,32,14,19,11,18,22,,,,,1.7,1.0,1.4*30
$GPRMC,062716.000,A,5057.2298,N,00707.0978,E,11.88,92.52,230408,,,A*6B
$GPGGA,062717.000,5057.2296,N,00707.1029,E,1,08,1.0,83.2,M,47.7,M,,0000*6F
$GPGSA,A,3,03,06,32,14,19,11,18,22,,,,,1.7,1.0,1.4*30
$GPGSV,3,1,09,19,82,237,45,03,55,155,43,22,54,072,41,32,47,185,43*7A
$GPGSV,3,2,09,14,21,116,37,11,20,271,36,18,18,047,28,06,15,135,21*79
$GPGSV,3,3,09,28,09,329,21*48
$GPRMC,062717.000,A,5057.2296,N,00707.1029,E,11.62,92.53,230408,,,A*6D
$GPGGA,062718.000,5057.2294,N,00707.1079,E,1,08,1.0,83.5,M,47.7,M,,0000*60
$GPGSA,A,3,03,06,32,14,19,11,18,22,,,,,1.7,1.0,1.4*30
$GPRMC,062718.000,A,5057.2294,N,00707.1079,E,11.83,93.29,230408,,,A*66
$GPGGA,062719.000,5057.2292,N,00707.1131,E,1,08,1.0,83.6,M,47.7,M,,0000*69
$GPGSA,A,3,03,06,32,14,19,11,18,22,,,,,1.7,1.0,1.4*30
$GPRMC,062719.000,A,5057.2292,N,00707.1131,E,12.06,93.30,230408,,,A*6A
$GPGGA,062720.000,5057.2290,N,00707.1183,E,1,08,1.0,83.8,M,47.7,M,,0000*66
$GPGSA,A,3,03,06,32,14,19,11,18,22,,,,,1.7,1.0,1.4*30
$GPRMC,062720.000,A,5057.2290,N,00707.1183,E,12.11,93.29,230408,,,A*65
$GPGGA,062721.000,5057.2288,N,00707.1234,E,1,08,1.0,83.9,M,47.7,M,,0000*60
$GPGSA,A,3,03,06,32,14,19,11,18,22,,,,,1.7,1.0,1.4*30
$GPRMC,062721.000,A,5057.2288,N,00707.1234,E,11.77,92.93,230408,,,A*61
$GPGGA,062722.000,5057.2287,N,00707.1284,E,1,08,1.0,83.8,M,47.7,M,,0000*66
$GPGSA,A,3,03,06,32,14,19,11,18,22,,,,,1.7,1.0,1.4*30
$GPGSV,3,1,09,19,82,237,45,03,55,155,45,22,54,072,41,32,47,185,43*7C
$GPGSV,3,2,09,14,21,116,30,11,20,271,36,18,18,047,27,06,15,135,25*75
$GPGSV,3,3,09,28,09,329,20*49
$GPRMC,062722.000,A,5057.2287,N,00707.1284,E,11.43,93.08,230408,,,A*62
$GPGGA,062723.000,5057.2285,N,00707.1333,E,1,08,1.0,83.8,M,47.7,M,,0000*68
$GPGSA,A,3,03,06,32,14,19,11,18,22,,,,,1.7,1.0,1.4*30
$GPRMC,062723.000,A,5057.2285,N,00707.1333,E,11.01,92.72,230408,,,A*66
$GPGGA,062724.000,5057.2284,N,00707.1379,E,1,08,1.0,83.9,M,47.7,M,,0000*61
$GPGSA,A,3,03,06,32,14,19,11,18,22,,,,,1.7,1.0,1.4*30
$GPRMC,062724.000,A,5057.2284,N,00707.1379,E,10.64,93.64,230408,,,A*6A
$GPGGA,062725.000,5057.2282,N,00707.1423,E,1,08,1.0,83.9,M,47.7,M,,0000*6E
$GPGSA,A,3,03,06,32,14,19,11,18,22,,,,,1.7,1.0,1.4*30
$GPRMC,062725.000,A,5057.2282,N,00707.1423,E,10.01,95.12,230408,,,A*61
$GPGGA,062726.000,5057.2279,N,00707.1464,E,1,08,1.0,84.1,M,47.7,M,,0000*65
$GPGSA,A,3,03,06,32,14,19,11,18,22,,,,,1.7,1.0,1.4*30
$GPRMC,062726.000,A,5057.2279,N,00707.1464,E,9.02,93.61,230408,,,A*5C
$GPGGA,062727.000,5057.2278,N,00707.1498,E,1,08,1.0,84.1,M,47.7,M,,0000*66
$GPGSA,A,3,03,06,32,14,19,11,18,22,,,,,1.7,1.0,1.4*30
$GPGSV,3,1,09,19,82,237,45,03,55,155,44,22,54,072,40,32,47,185,42*7D
$GPGSV,3,2,09,14,21,116,34,11,20,271,36,18,18,047,28,06,15,135,31*7B
$GPGSV,3,3,09,28,09,329,19*43
$GPRMC,062727.000,A,5057.2278,N,00707.1498,E,6.86,93.48,230408,,,A*57
$GPGGA,062728.000,5057.2277,N,00707.1520,E,1,08,1.0,84.1,M,47.7,M,,0000*64
$GPGSA,A,3,03,06,32,14,19,11,18,22,,,,,1.7,1.0,1.4*30
$GPRMC,062728.000,A,5057.2277,N,00707.1520,E,3.84,93.48,230408,,,A*52
$GPGGA,062729.000,5057.2277,N,00707.1530,E,1,08,1.0,84.1,M,47.7,M,,0000*64
$GPGSA,A,3,03,06,32,14,19,11,18,22,,,,,1.7,1.0,1.4*30
$GPRMC,062729.000,A,5057.2277,N,00707.1530,E,1.84,92.85,230408,,,A*50
$GPGGA,062730.000,5057.2277,N,00707.1535,E,1,08,1.0,84.0,M,47.7,M,,0000*68
$GPGSA,A,3,03,06,32,14,19,11,18,22,,,,,1.7,1.0,1.4*30
$GPRMC,062730.000,A,5057.2277,N,00707.1535,E,1.09,96.07,230408,,,A*56
$GPGGA,062731.000,5057.2278,N,00707.1537,E,1,08,1.0,83.8,M,47.7,M,,0000*6B
$GPGSA,A,3,03,06,32,14,19,11,18,22,,,,,1.7,1.0,1.4*30
$GPRMC,062731.000,A,5057.2278,N,00707.1537,E,0.55,73.01,230408,,,A*5F
$GPGGA,062732.000,5057.2278,N,00707.1541,E,1,08,1.0,83.7,M,47.7,M,,0000*66
$GPGSA,A,3,03,06,32,14,19,11,18,22,,,,,1.7,1.0,1.4*30
$GPGSV,3,1,09,19,82,237,45,03,55,155,44,22,54,072,40,32,47,185,43*7C
$GPGSV,3,2,09,14,21,116,35,11,20,271,36,18,18,047,33,06,15,135,39*78
$GPGSV,3,3,09,28,09,329,24*4D
$GPRMC,062732.000,A,5057.2278,N,00707.1541,E,1.48,80.46,230408,,,A*5F
$GPGGA,062733.000,5057.2282,N,00707.1551,E,1,08,1.0,83.5,M,47.7,M,,0000*61
$GPGSA,A,3,03,06,32,14,19,11,18,22,,,,,1.7,1.0,1.4*30
$GPRMC,062733.000,A,5057.2282,N,00707.1551,E,3.92,62.91,230408,,,A*59
$GPGGA,062734.000,5057.2291,N,00707.1564,E,1,08,1.0,83.5,M,47.7,M,,0000*62
$GPGSA,A,3,03,06,32,14,19,11,18,22,,,,,1.7,1.0,1.4*30
$GPRMC,062734.000,A,5057.2291,N,00707.1564,E,5.76,33.03,230408,,,A*59
$GPGGA,062735.000,5057.2307,N,00707.1569,E,1,08,1.0,83.4,M,47.7,M,,0000*61
$GPGSA,A,3,03,06,32,14,19,11,18,22,,,,,1.7,1.0,1.4*30
$GPRMC,062735.000,A,5057.2307,N,00707.1569,E,5.90,359.15,230408,,,A*6B
$GPGGA,062736.000,5057.2327,N,00707.1561,E,1,08,1.0,83.4,M,47.7,M,,0000*68
$GPGSA,A,3,03,06,32,14,19,11,18,22,,,,,1.7,1.0,1.4*30
$GPRMC,062736.000,A,5057.2327,N,00707.1561,E,8.76,340.63,230408,,,A*6E
$GPGGA,062737.000,5057.2354,N,00707.1543,E,1,08,1.0,83.2,M,47.7,M,,0000*6B
$GPGSA,A,3,03,06,32,14,19,11,18,22,,,,,1.7,1.0,1.4*30
$GPGSV,3,1,09,19,82,237,44,03,55,155,43,22,54,072,41,32,47,185,42*7A
$GPGSV,3,2,09,14,21,116,40,11,20,271,41,18,18,047,39,06,15,135,29*71
$GPGSV,3,3,09,28,09,329,25*4C
$GPRMC,062737.000,A,5057.2354,N,00707.1543,E,11.59,336.99,230408,,,A*5A
$GPGGA,062738.000,5057.2387,N,00707.1519,E,1,08,1.0,83.1,M,47.7,M,,0000*66
$GPGSA,A,3,03,06,32,14,19,11,18,22,,,,,1.7,1.0,1.4*30
$GPRMC,062738.000,A,5057.2387,N,00707.1519,E,13.92,335.80,230408,,,A*5A
$GPGGA,062739.000,5057.2423,N,00707.1492,E,1,08,1.0,83.1,M,47.7,M,,0000*6C
$GPGSA,A,3,03,06,32,14,19,11,18,22,,,,,1.7,1.0,1.4*30
$GPRMC,062739.000,A,5057.2423,N,00707.1492,E,14.72,334.97,230408,,,A*5E
$GPGGA,062740.000,5057.2460,N,00707.1463,E,1,08,1.0,83.2,M,47.7,M,,0000*68
$GPGSA,A,3,03,06,32,14,19,11,18,22,,,,,1.7,1.0,1.4*30
$GPRMC,062740.000,A,5057.2460,N,00707.1463,E,14.57,334.78,230408,,,A*5F
$GPGGA,062741.000,5057.2498,N,00707.1434,E,1,08,1.0,83.5,M,47.7,M,,0000*6B
$GPGSA,A,3,03,06,32,14,19,11,18,22,,,,,1.7,1.0,1.4*30
$GPRMC,062741.000,A,5057.2498,N,00707.1434,E,15.65,334.63,230408,,,A*51
$GPGGA,062742.000,5057.2538,N,00707.1405,E,1,08,1.0,83.7,M,47.7,M,,0000*63
$GPGSA,A,3,03,06,32,14,19,11,18,22,,,,,1.7,1.0,1.4*30
$GPGSV,3,1,09,19,82,237,43,03,55,155,43,22,54,072,41,32,47,185,38*70
$GPGSV,3,2,09,14,21,116,28,11,20,271,27,18,18,047,34,06,15,135,29*72
$GPGSV,3,3,09,28,09,329,36*4E
$GPRMC,062742.000,A,5057.2538,N,00707.1405,E,16.10,334.90,230408,,,A*56
$GPGGA,062743.000,5057.2578,N,00707.1375,E,1,08,1.0,84.0,M,47.7,M,,0000*66
$GPGSA,A,3,03,06,32,14,19,11,18,22,,,,,1.7,1.0,1.4*30
$GPRMC,062743.000,A,5057.2578,N,00707.1375,E,15.89,334.88,230408,,,A*59
$GPGGA,062744.000,5057.2617,N,00707.1346,E,1,08,1.0,84.1,M,47.7,M,,0000*6A
$GPGSA,A,3,03,06,32,14,19,11,18,22,,,,,1.7,1.0,1.4*30
$GPRMC,062744.000,A,5057.2617,N,00707.1346,E,15.50,334.39,230408,,,A*5A
$GPGGA,062745.000,5057.2655,N,00707.1316,E,1,08,1.0,84.3,M,47.7,M,,0000*6A
$GPGSA,A,3,03,06,32,14,19,11,18,22,,,,,1.7,1.0,1.4*30
$GPRMC,062745.000,A,5057.2655,N,00707.1316,E,15.29,332.44,230408,,,A*5A
$GPGGA,062746.000,5057.2695,N,00707.1280,E,1,08,1.0,84.1,M,47.7,M,,0000*69
$GPGSA,A,3,03,06,32,14,19,11,18,22,,,,,1.7,1.0,1.4*30
$GPRMC,062746.000,A,5057.2695,N,00707.1280,E,17.30,329.65,230408,,,A*58
$GPGGA,062747.000,5057.2738,N,00707.1239,E,1,08,1.0,83.9,M,47.7,M,,0000*63
$GPGSA,A,3,03,06,32,14,19,11,18,22,,,,,1.7,1.0,1.4*30
$GPGSV,3,1,09,19,82,235,43,03,54,155,42,22,54,071,41,32,47,185,36*7F
$GPGSV,3,2,09,14,21,116,34,11,21,271,33,18,18,047,30,06,15,135,30*77
$GPGSV,3,3,09,28,09,329,42*4D
$GPRMC,062747.000,A,5057.2738,N,00707.1239,E,18.01,329.33,230408,,,A*53
$GPGGA,062748.000,5057.2780,N,00707.1201,E,1,08,1.0,83.8,M,47.7,M,,0000*65
$GPGSA,A,3,03,06,32,14,19,11,18,22,,,,,1.7,1.0,1.4*30
$GPRMC,062748.000,A,5057.2780,N,00707.1201,E,17.19,331.34,230408,,,A*5C
$GPGGA,062749.000,5057.2821,N,00707.1168,E,1,08,1.0,84.1,M,47.7,M,,0000*62
$GPGSA,A,3,03,06,32,14,19,11,18,22,,,,,1.7,1.0,1.4*30
$GPRMC,062749.000,A,5057.2821,N,00707.1168,E,16.52,333.02,230408,,,A*5C
$GPGGA,062750.000,5057.2863,N,00707.1140,E,1,08,1.0,84.5,M,47.7,M,,0000*62
$GPGSA,A,3,03,06,32,14,19,11,18,22,,,,,1.7,1.0,1.4*30
$GPRMC,062750.000,A,5057.2863,N,00707.1140,E,16.45,339.29,230408,,,A*5D
$GPGGA,062751.000,5057.2906,N,00707.1119,E,1,08,1.0,84.9,M,47.7,M,,0000*61
$GPGSA,A,3,03,06,32,14,19,11,18,22,,,,,1.7,1.0,1.4*30
$GPRMC,062751.000,A,5057.2906,N,00707.1119,E,16.59,343.18,230408,,,A*50
$GPGGA,062752.000,5057.2949,N,00707.1095,E,1,09,0.9,84.8,M,47.7,M,,0000*64
$GPGSA,A,3,03,06,32,14,19,11,18,22,28,,,,1.6,0.9,1.3*34
$GPGSV,3,1,09,19,82,235,43,03,54,155,43,22,54,071,42,32,47,185,39*72
$GPGSV,3,2,09,14,21,116,33,11,21,271,23,18,18,047,38,06,15,135,31*78
$GPGSV,3,3,09,28,09,329,41*4E
$GPRMC,062752.000,A,5057.2949,N,00707.1095,E,16.04,338.10,230408,,,A*51
$GPGGA,062753.000,5057.2990,N,00707.1067,E,1,09,0.9,84.8,M,47.7,M,,0000*6C
$GPGSA,A,3,03,06,32,14,19,11,18,22,28,,,,1.6,0.9,1.3*34
$GPRMC,062753.000,A,5057.2990,N,00707.1067,E,15.85,335.66,230408,,,A*5F
$GPGGA,062754.000,5057.3030,N,00707.1038,E,1,09,0.9,84.6,M,47.7,M,,0000*6D
$GPGSA,A,3,03,06,32,14,19,11,18,22,28,,,,1.6,0.9,1.3*34
$GPRMC,062754.000,A,5057.3030,N,00707.1038,E,15.26,336.03,230408,,,A*59
$GPGGA,062755.000,5057.3069,N,00707.1012,E,1,09,0.9,84.7,M,47.7,M,,0000*69
$GPGSA,A,3,03,06,32,14,19,11,18,22,28,,,,1.6,0.9,1.3*34
$GPRMC,062755.000,A,5057.3069,N,00707.1012,E,15.15,337.73,230408,,,A*5A
$GPGGA,062756.000,5057.3110,N,00707.0985,E,1,09,0.9,84.7,M,47.7,M,,0000*63
$GPGSA,A,3,03,06,32,14,19,11,18,22,28,,,,1.6,0.9,1.3*34
$GPRMC,062756.000,A,5057.3110,N,00707.0985,E,16.29,339.12,230408,,,A*55
$GPGGA,062757.000,5057.3155,N,00707.0958,E,1,09,0.9,84.4,M,47.7,M,,0000*60
$GPGSA,A,3,03,06,32,14,19,11,18,22,28,,,,1.6,0.9,1.3*34
$GPGSV,3,1,09,19,82,235,43,03,54,155,42,22,54,071,39,32,47,185,40*71
$GPGSV,3,2,09,14,21,116,31,11,21,271,40,18,18,047,19,06,15,135,26*7A
$GPGSV,3,3,09,28,09,329,32*4A
$GPRMC,062757.000,A,5057.3155,N,00707.0958,E,17.27,339.32,230408,,,A*58
$GPGGA,062758.000,5057.3201,N,00707.0932,E,1,09,0.9,84.3,M,47.7,M,,0000*66
$GPGSA,A,3,03,06,32,14,19,11,18,22,28,,,,1.6,0.9,1.3*34
$GPRMC,062758.000,A,5057.3201,N,00707.0932,E,17.62,340.94,230408,,,A*5A
$GPGGA,062759.000,5057.3247,N,00707.0906,E,1,09,0.9,84.1,M,47.7,M,,0000*60
$GPGSA,A,3,03,06,32,14,19,11,18,22,28,,,,1.6,0.9,1.3*34
$GPRMC,062759.000,A,5057.3247,N,00707.0906,E,17.87,341.28,230408,,,A*53
$GPGGA,062800.000,5057.3295,N,00707.0880,E,1,09,0.9,83.9,M,47.7,M,,0000*6C
$GPGSA,A,3,03,06,32,14,19,11,18,22,28,,,,1.6,0.9,1.3*34
$GPRMC,062800.000,A,5057.3295,N,00707.0880,E,18.10,341.16,230408,,,A*5C
$GPGGA,062801.000,5057.3343,N,00707.0854,E,1,09,0.9,83.7,M,47.7,M,,0000*60
$GPGSA,A,3,03,06,32,14,19,11,18,22,28,,,,1.6,0.9,1.3*34
$GPRMC,062801.000,A,5057.3343,N,00707.0854,E,18.43,340.86,230408,,,A*50
$GPGGA,062802.000,5057.3392,N,00707.0828,E,1,09,0.9,83.6,M,47.7,M,,0000*65
$GPGSA,A,3,03,06,32,14,19,11,18,22,28,,,,1.6,0.9,1.3*34
$GPGSV,3,1,09,19,82,235,43,03,54,155,43,22,54,071,41,32,47,185,40*7F
$GPGSV,3,2,09,14,21,116,21,11,21,271,28,18,18,047,29,06,15,135,20*70
$GPGSV,3,3,09,28,09,329,27*4E
$GPRMC,062802.000,A,5057.3392,N,00707.0828,E,18.41,341.25,230408,,,A*5E
$GPGGA,062803.000,5057.3441,N,00707.0801,E,1,09,0.9,83.5,M,47.7,M,,0000*65
$GPGSA,A,3,03,06,32,14,19,11,18,22,28,,,,1.6,0.9,1.3*34
$GPRMC,062803.000,A,5057.3441,N,00707.0801,E,18.57,340.72,230408,,,A*59
$GPGGA,062804.000,5057.3489,N,00707.0774,E,1,09,0.9,83.8,M,47.7,M,,0000*66
$GPGSA,A,3,03,06,32,14,19,11,18,22,28,,,,1.6,0.9,1.3*34
$GPRMC,062804.000,A,5057.3489,N,00707.0774,E,18.31,341.65,230408,,,A*50
$GPGGA,062805.000,5057.3537,N,00707.0749,E,1,09,0.9,84.0,M,47.7,M,,0000*62
$GPGSA,A,3,03,06,32,14,19,11,18,22,28,,,,1.6,0.9,1.3*34
$GPRMC,062805.000,A,5057.3537,N,00707.0749,E,18.30,342.02,230408,,,A*58
$GPGGA,062806.000,5057.3585,N,00707.0724,E,1,09,0.9,83.8,M,47.7,M,,0000*6C
$GPGSA,A,3,03,06,32,14,19,11,18,22,28,,,,1.6,0.9,1.3*34
$GPRMC,062806.000,A,5057.3585,N,00707.0724,E,17.99,342.21,230408,,,A*54
$GPGGA,062807.000,5057.3632,N,00707.0699,E,1,09,0.9,83.7,M,47.7,M,,0000*6A
$GPGSA,A,3,03,06,32,14,19,11,18,22,28,,,,1.6,0.9,1.3*34
$GPGSV,3,1,09,19,82,235,43,03,54,155,43,22,54,071,42,32,47,185,41*7D
$GPGSV,3,2,09,14,21,116,21,11,21,271,32,18,18,047,29,06,15,135,23*78
$GPGSV,3,3,09,28,09,329,38*40
$GPRMC,062807.000,A,5057.3632,N,00707.0699,E,17.12,341.98,230408,,,A*5F
$GPGGA,062808.000,5057.3676,N,00707.0675,E,1,09,0.9,83.9,M,47.7,M,,0000*69
$GPGSA,A,3,03,06,32,14,19,11,18,22,28,,,,1.6,0.9,1.3*34
$GPRMC,062808.000,A,5057.3676,N,00707.0675,E,16.23,341.79,230408,,,A*5E
$GPGGA,062809.000,5057.3718,N,00707.0652,E,1,08,1.1,84.2,M,47.7,M,,0000*60
$GPGSA,A,3,03,06,32,14,19,18,22,28,,,,,1.8,1.1,1.4*34
$GPRMC,062809.000,A,5057.3718,N,00707.0652,E,15.24,340.17,230408,,,A*5E
$GPGGA,062810.000,5057.3755,N,00707.0631,E,1,09,0.9,84.3,M,47.7,M,,0000*6D
$GPGSA,A,3,03,06,32,14,19,11,18,22,28,,,,1.6,0.9,1.3*34
$GPRMC,062810.000,A,5057.3755,N,00707.0631,E,12.88,339.75,230408,,,A*51
$GPGGA,062811.000,5057.3784,N,00707.0613,E,1,09,0.9,84.5,M,47.7,M,,0000*66
$GPGSA,A,3,03,06,32,14,19,11,18,22,28,,,,1.6,0.9,1.3*34
$GPRMC,062811.000,A,5057.3784,N,00707.0613,E,9.65,339.27,230408,,,A*62
$GPGGA,062812.000,5057.3805,N,00707.0600,E,1,09,0.9,84.6,M,47.7,M,,0000*62
$GPGSA,A,3,03,06,32,14,19,11,18,22,28,,,,1.6,0.9,1.3*34
$GPGSV,3,1,09,19,82,235,43,03,54,155,43,22,54,071,29,32,47,185,41*70
$GPGSV,3,2,09,14,21,116,28,11,21,271,40,18,18,047,25,06,15,135,27*7C
$GPGSV,3,3,09,28,09,329,40*4F
$GPRMC,062812.000,A,5057.3805,N,00707.0600,E,6.98,341.31,230408,,,A*60
$GPGGA,062813.000,5057.3822,N,00707.0589,E,1,09,0.9,84.6,M,47.7,M,,0000*64
$GPGSA,A,3,03,06,32,14,19,11,18,22,28,,,,1.6,0.9,1.3*34
$GPRMC,062813.000,A,5057.3822,N,00707.0589,E,6.30,339.64,230408,,,A*6B
$GPGGA,062814.000,5057.3837,N,00707.0577,E,1,09,0.9,84.7,M,47.7,M,,0000*67
$GPGSA,A,3,03,06,32,14,19,11,18,22,28,,,,1.6,0.9,1.3*34
$GPRMC,062814.000,A,5057.3837,N,00707.0577,E,5.54,334.73,230408,,,A*63
$GPGGA,062815.000,5057.3851,N,00707.0562,E,1,09,0.9,84.8,M,47.7,M,,0000*6D
$GPGSA,A,3,03,06,32,14,19,11,18,22,28,,,,1.6,0.9,1.3*34
$GPRMC,062815.000,A,5057.3851,N,00707.0562,E,6.10,323.82,230408,,,A*6D
$GPGGA,062816.000,5057.3866,N,00707.0539,E,1,09,0.9,84.7,M,47.7,M,,0000*6B
$GPGSA,A,3,03,06,32,14,19,11,18,22,28,,,,1.6,0.9,1.3*34
$GPRMC,062816.000,A,5057.3866,N,00707.0539,E,8.21,312.66,230408,,,A*60
$GPGGA,062817.000,5057.3876,N,00707.0503,E,1,09,0.9,84.7,M,47.7,M,,0000*62
$GPGSA,A,3,03,06,32,14,19,11,18,22,28,,,,1.6,0.9,1.3*34
$GPGSV,3,1,09,19,82,233,43,03,54,155,44,22,54,071,42,32,47,185,41*7C
$GPGSV,3,2,09,14,21,116,22,11,21,271,39,18,18,047,32,06,15,135,26*7F
$GPGSV,3,3,09,28,09,329,40*4F
$GPRMC,062817.000,A,5057.3876,N,00707.0503,E,9.29,282.40,230408,,,A*6C
$GPGGA,062818.000,5057.3874,N,00707.0456,E,1,09,0.9,84.4,M,47.7,M,,0000*6D
$GPGSA,A,3,03,06,32,14,19,11,18,22,28,,,,1.6,0.9,1.3*34
$GPRMC,062818.000,A,5057.3874,N,00707.0456,E,11.20,260.12,230408,,,A*5B
$GPGGA,062819.000,5057.3862,N,00707.0405,E,1,09,0.9,84.2,M,47.7,M,,0000*6B
$GPGSA,A,3,03,06,32,14,19,11,18,22,28,,,,1.6,0.9,1.3*34
$GPRMC,062819.000,A,5057.3862,N,00707.0405,E,12.57,242.55,230408,,,A*5B
$GPGGA,062820.000,5057.3843,N,00707.0354,E,1,09,0.9,84.3,M,47.7,M,,0000*60
$GPGSA,A,3,03,06,32,14,19,11,18,22,28,,,,1.6,0.9,1.3*34
$GPRMC,062820.000,A,5057.3843,N,00707.0354,E,13.91,237.00,230408,,,A*58
$GPGGA,062821.000,5057.3819,N,00707.0297,E,1,09,0.9,84.6,M,47.7,M,,0000*65
$GPGSA,A,3,03,06,32,14,19,11,18,22,28,,,,1.6,0.9,1.3*34
$GPRMC,062821.000,A,5057.3819,N,00707.0297,E,16.32,236.28,230408,,,A*5F
$GPGGA,062822.000,5057.3792,N,00707.0233,E,1,09,0.9,85.0,M,47.7,M,,0000*63
$GPGSA,A,3,03,06,32,14,19,11,18,22,28,,,,1.6,0.9,1.3*34
$GPGSV,3,1,09,19,82,233,44,03,54,155,46,22,54,071,42,32,47,185,42*7A
$GPGSV,3,2,09,14,21,116,18,11,21,271,33,18,18,047,26,06,15,135,18*74
$GPGSV,3,3,09,28,09,329,34*4C
$GPRMC,062822.000,A,5057.3792,N,00707.0233,E,17.43,236.25,230408,,,A*54
$GPGGA,062823.000,5057.3765,N,00707.0168,E,1,09,0.9,85.2,M,47.7,M,,0000*65
$GPGSA,A,3,03,06,32,14,19,11,18,22,28,,,,1.6,0.9,1.3*34
$GPRMC,062823.000,A,5057.3765,N,00707.0168,E,17.03,237.08,230408,,,A*5A
$GPGGA,062824.000,5057.3739,N,00707.0105,E,1,09,0.9,85.3,M,47.7,M,,0000*61
$GPGSA,A,3,03,06,32,14,19,11,18,22,28,,,,1.6,0.9,1.3*34
$GPRMC,062824.000,A,5057.3739,N,00707.0105,E,16.86,236.66,230408,,,A*5A
$GPGGA,062825.000,5057.3712,N,00707.0043,E,1,09,0.9,85.4,M,47.7,M,,0000*6D
$GPGSA,A,3,03,06,32,14,19,11,18,22,28,,,,1.6,0.9,1.3*34
$GPRMC,062825.000,A,5057.3712,N,00707.0043,E,16.67,235.99,230408,,,A*5D
$GPGGA,062826.000,5057.3685,N,00706.9981,E,1,09,0.9,85.7,M,47.7,M,,0000*6D
$GPGSA,A,3,03,06,32,14,19,11,18,22,28,,,,1.6,0.9,1.3*34
$GPRMC,062826.000,A,5057.3685,N,00706.9981,E,17.17,235.51,230408,,,A*5C
$GPGGA,062827.000,5057.3657,N,00706.9918,E,1,09,0.9,86.1,M,47.7,M,,0000*66
$GPGSA,A,3,03,06,32,14,19,11,18,22,28,,,,1.6,0.9,1.3*34
$GPGSV,3,1,09,19,82,233,44,03,54,155,46,22,54,071,42,32,47,185,41*79
$GPGSV,3,2,09,14,21,116,32,11,21,271,32,18,18,047,27,06,15,135,24*73
$GPGSV,3,3,09,28,09,329,28*41
$GPRMC,062827.000,A,5057.3657,N,00706.9918,E,17.14,233.47,230408,,,A*50
$GPGGA,062828.000,5057.3630,N,00706.9863,E,1,09,0.9,86.5,M,47.7,M,,0000*61
$GPGSA,A,3,03,06,32,14,19,11,18,22,28,,,,1.6,0.9,1.3*34
$GPRMC,062828.000,A,5057.3630,N,00706.9863,E,14.04,231.51,230408,,,A*54
$GPGGA,062829.000,5057.3608,N,00706.9818,E,1,09,0.9,87.0,M,47.7,M,,0000*63
$GPGSA,A,3,03,06,32,14,19,11,18,22,28,,,,1.6,0.9,1.3*34
$GPRMC,062829.000,A,5057.3608,N,00706.9818,E,11.43,232.34,230408,,,A*54
$GPGGA,062830.000,5057.3589,N,00706.9780,E,1,09,0.9,87.4,M,47.7,M,,0000*6B
$GPGSA,A,3,03,06,32,14,19,11,18,22,28,,,,1.6,0.9,1.3*34
$GPRMC,062830.000,A,5057.3589,N,00706.9780,E,10.30,231.41,230408,,,A*5C
$GPGGA,062831.000,5057.3572,N,00706.9744,E,1,09,0.9,88.0,M,47.7,M,,0000*6D
$GPGSA,A,3,03,06,32,14,19,11,18,22,28,,,,1.6,0.9,1.3*34
$GPRMC,062831.000,A,5057.3572,N,00706.9744,E,9.57,236.19,230408,,,A*62
$GPGGA,062832.000,5057.3558,N,00706.9708,E,1,09,0.9,88.5,M,47.7,M,,0000*6B
$GPGSA,A,3,03,06,32,14,19,11,18,22,28,,,,1.6,0.9,1.3*34
$GPGSV,3,1,09,19,82,233,43,03,54,155,46,22,54,071,42,32,47,185,41*7E
$GPGSV,3,2,09,14,21,116,25,11,21,271,37,18,18,047,32,06,15,135,22*72
$GPGSV,3,3,09,28,09,329,22*4B
$GPRMC,062832.000,A,5057.3558,N,00706.9708,E,8.83,240.92,230408,,,A*6B
$GPGGA,062833.000,5057.3547,N,00706.9674,E,1,09,0.9,89.0,M,47.7,M,,0000*6A
$GPGSA,A,3,03,06,32,14,19,11,18,22,28,,,,1.6,0.9,1.3*34
$GPRMC,062833.000,A,5057.3547,N,00706.9674,E,8.21,244.98,230408,,,A*68
$GPGGA,062834.000,5057.3537,N,00706.9642,E,1,09,0.9,89.5,M,47.7,M,,0000*6A
$GPGSA,A,3,03,06,32,14,19,11,18,22,28,,,,1.6,0.9,1.3*34
$GPRMC,062834.000,A,5057.3537,N,00706.9642,E,7.61,244.27,230408,,,A*62
$GPGGA,062835.000,5057.3527,N,00706.9613,E,1,09,0.9,90.1,M,47.7,M,,0000*62
$GPGSA,A,3,03,06,32,14,19,11,18,22,28,,,,1.6,0.9,1.3*34
$GPRMC,062835.000,A,5057.3527,N,00706.9613,E,7.05,240.34,230408,,,A*62
$GPGGA,062836.000,5057.3517,N,00706.9587,E,1,09,0.9,90.4,M,47.7,M,,0000*69
$GPGSA,A,3,03,06,32,14,19,11,18,22,28,,,,1.6,0.9,1.3*34
$GPRMC,062836.000,A,5057.3517,N,00706.9587,E,6.78,238.33,230408,,,A*6F
$GPGGA,062837.000,5057.3503,N,00706.9559,E,1,09,0.9,90.9,M,47.7,M,,0000*63
$GPGSA,A,3,03,06,32,14,19,11,18,22,28,,,,1.6,0.9,1.3*34
$GPGSV,3,1,09,19,82,233,44,03,54,155,47,22,54,071,42,32,47,185,41*78
$GPGSV,3,2,09,14,21,116,33,11,21,271,31,18,18,047,23,06,15,135,30*70
$GPGSV,3,3,09,28,09,329,20*49
$GPRMC,062837.000,A,5057.3503,N,00706.9559,E,8.97,230.40,230408,,,A*6B
$GPGGA,062838.000,5057.3483,N,00706.9523,E,1,09,0.9,91.0,M,47.7,M,,0000*60
$GPGSA,A,3,03,06,32,14,19,11,18,22,28,,,,1.6,0.9,1.3*34
$GPRMC,062838.000,A,5057.3483,N,00706.9523,E,12.17,232.51,230408,,,A*51
$GPGGA,062839.000,5057.3462,N,00706.9476,E,1,09,0.9,91.6,M,47.7,M,,0000*69
$GPGSA,A,3,03,06,32,14,19,11,18,22,28,,,,1.6,0.9,1.3*34
$GPRMC,062839.000,A,5057.3462,N,00706.9476,E,13.38,238.43,230408,,,A*5B
$GPGGA,062840.000,5057.3443,N,00706.9419,E,1,09,0.9,92.2,M,47.7,M,,0000*6A
$GPGSA,A,3,03,06,32,14,19,11,18,22,28,,,,1.6,0.9,1.3*34
$GPRMC,062840.000,A,5057.3443,N,00706.9419,E,15.21,243.76,230408,,,A*5B
$GPGGA,062841.000,5057.3424,N,00706.9355,E,1,09,0.9,92.2,M,47.7,M,,0000*65
$GPGSA,A,3,03,06,32,14,19,11,18,22,28,,,,1.6,0.9,1.3*34
$GPRMC,062841.000,A,5057.3424,N,00706.9355,E,16.95,245.31,230408,,,A*5D
$GPGGA,062842.000,5057.3403,N,00706.9288,E,1,09,0.9,92.4,M,47.7,M,,0000*64
$GPGSA,A,3,03,06,32,14,19,11,18,22,28,,,,1.6,0.9,1.3*34
$GPGSV,3,1,09,19,82,233,44,03,54,155,47,22,54,071,41,32,47,185,41*7B
$GPGSV,3,2,09,14,21,116,33,11,21,271,25,18,18,047,28,06,15,135,30*7E
$GPGSV,3,3,09,28,09,329,19*43
$GPRMC,062842.000,A,5057.3403,N,00706.9288,E,16.72,243.06,230408,,,A*51
$GPGGA,062843.000,5057.3380,N,00706.9225,E,1,09,0.9,92.3,M,47.7,M,,0000*69
$GPGSA,A,3,03,06,32,14,19,11,18,22,28,,,,1.6,0.9,1.3*34
$GPRMC,062843.000,A,5057.3380,N,00706.9225,E,15.83,239.53,230408,,,A*5B
$GPGGA,062844.000,5057.3357,N,00706.9167,E,1,08,1.0,92.5,M,47.7,M,,0000*6E
$GPGSA,A,3,03,06,32,14,19,11,18,22,,,,,1.7,1.0,1.4*30
$GPRMC,062844.000,A,5057.3357,N,00706.9167,E,15.11,236.82,230408,,,A*5B
$GPGGA,062845.000,5057.3337,N,00706.9108,E,1,08,1.0,91.8,M,47.7,M,,0000*6E
$GPGSA,A,3,03,06,32,14,19,11,18,22,,,,,1.7,1.0,1.4*30
$GPRMC,062845.000,A,5057.3337,N,00706.9108,E,14.34,241.46,230408,,,A*5B
$GPGGA,062846.000,5057.3321,N,00706.9054,E,1,09,0.9,91.3,M,47.7,M,,0000*60
$GPGSA,A,3,03,06,32,14,19,11,18,22,28,,,,1.6,0.9,1.3*34
$GPRMC,062846.000,A,5057.3321,N,00706.9054,E,12.09,248.43,230408,,,A*53
$GPGGA,062847.000,5057.3311,N,00706.9010,E,1,09,0.9,90.9,M,47.7,M,,0000*69
$GPGSA,A,3,03,06,32,14,19,11,18,22,28,,,,1.6,0.9,1.3*34
$GPGSV,3,1,09,19,82,231,44,03,54,155,47,22,53,071,41,32,48,185,41*71
$GPGSV,3,2,09,14,22,116,28,11,21,271,38,18,18,047,27,06,14,135,28*7C
$GPGSV,3,3,09,28,10,329,24*45
$GPRMC,062847.000,A,5057.3311,N,00706.9010,E,9.00,253.81,230408,,,A*66
$GPGGA,062848.000,5057.3307,N,00706.8975,E,1,09,0.9,90.4,M,47.7,M,,0000*67
$GPGSA,A,3,03,06,32,14,19,11,18,22,28,,,,1.6,0.9,1.3*34
$GPRMC,062848.000,A,5057.3307,N,00706.8975,E,7.56,264.10,230408,,,A*64
$GPGGA,062849.000,5057.3305,N,00706.8944,E,1,09,0.9,90.1,M,47.7,M,,0000*63
$GPGSA,A,3,03,06,32,14,19,11,18,22,28,,,,1.6,0.9,1.3*34
$GPRMC,062849.000,A,5057.3305,N,00706.8944,E,6.11,267.66,230408,,,A*65
$GPGGA,062850.000,5057.3307,N,00706.8915,E,1,09,0.9,89.3,M,47.7,M,,0000*67
$GPGSA,A,3,03,06,32,14,19,11,18,22,28,,,,1.6,0.9,1.3*34
$GPRMC,062850.000,A,5057.3307,N,00706.8915,E,5.45,276.36,230408,,,A*6C
$GPGGA,062851.000,5057.3310,N,00706.8893,E,1,09,0.9,88.5,M,47.7,M,,0000*68
$GPGSA,A,3,03,06,32,14,19,11,18,22,28,,,,1.6,0.9,1.3*34
$GPRMC,062851.000,A,5057.3310,N,00706.8893,E,3.87,287.23,230408,,,A*66
$GPGGA,062852.000,5057.3313,N,00706.8880,E,1,09,0.9,87.8,M,47.7,M,,0000*68
$GPGSA,A,3,03,06,32,14,19,11,18,22,28,,,,1.6,0.9,1.3*34
$GPGSV,3,1,09,19,82,231,43,03,54,155,44,22,53,071,40,32,48,185,42*77
$GPGSV,3,2,09,14,22,116,29,11,21,271,42,18,18,047,24,06,14,135,31*7B
$GPGSV,3,3,09,28,10,329,36*46
$GPRMC,062852.000,A,5057.3313,N,00706.8880,E,1.76,298.71,230408,,,A*61
$GPGGA,062853.000,5057.3315,N,00706.8875,E,1,09,0.9,87.1,M,47.7,M,,0000*6C
$GPGSA,A,3,03,06,32,14,19,11,18,22,28,,,,1.6,0.9,1.3*34
$GPRMC,062853.000,A,5057.3315,N,00706.8875,E,0.17,335.43,230408,,,A*6D
$GPGGA,062854.000,5057.3316,N,00706.8874,E,1,09,0.9,86.6,M,47.7,M,,0000*6F
$GPGSA,A,3,03,06,32,14,19,11,18,22,28,,,,1.6,0.9,1.3*34
$GPRMC,062854.000,A,5057.3316,N,00706.8874,E,0.15,70.82,230408,,,A*55
$GPGGA,062855.000,5057.3316,N,00706.8874,E,1,09,0.9,86.1,M,47.7,M,,0000*69
$GPGSA,A,3,03,06,32,14,19,11,18,22,28,,,,1.6,0.9,1.3*34
$GPRMC,062855.000,A,5057.3316,N,00706.8874,E,0.11,85.68,230408,,,A*5E
$GPGGA,062856.000,5057.3316,N,00706.8875,E,1,08,1.0,85.4,M,47.7,M,,0000*64
$GPGSA,A,3,03,06,32,19,11,18,22,28,,,,,1.6,1.0,1.3*39
$GPRMC,062856.000,A,5057.3316,N,00706.8875,E,0.21,87.84,230408,,,A*5F
$GPGGA,062857.000,5057.3317,N,00706.8876,E,1,08,1.0,84.7,M,47.7,M,,0000*65
$GPGSA,A,3,03,06,32,19,11,18,22,28,,,,,1.6,1.0,1.3*39
$GPGSV,3,1,09,19,82,231,42,03,54,155,44,22,53,071,43,32,48,185,43*74
$GPGSV,3,2,09,14,22,116,07,11,21,271,42,18,18,047,25,06,14,135,26*70
$GPGSV,3,3,09,28,10,329,33*43
$GPRMC,062857.000,A,5057.3317,N,00706.8876,E,0.16,95.59,230408,,,A*5B
$GPGGA,062858.000,5057.3317,N,00706.8877,E,1,08,1.0,84.0,M,47.7,M,,0000*6C
$GPGSA,A,3,03,06,32,19,11,18,22,28,,,,,1.6,1.0,1.3*39
$GPRMC,062858.000,A,5057.3317,N,00706.8877,E,0.19,83.50,230408,,,A*54
$GPGGA,062859.000,5057.3320,N,00706.8874,E,1,09,0.9,83.4,M,47.7,M,,0000*60
$GPGSA,A,3,03,06,32,14,19,11,18,22,28,,,,1.6,0.9,1.3*34
$GPRMC,062859.000,A,5057.3320,N,00706.8874,E,1.93,309.39,230408,,,A*6F
$GPGGA,062900.000,5057.3329,N,00706.8862,E,1,09,0.9,83.0,M,47.7,M,,0000*67
$GPGSA,A,3,03,06,32,14,19,11,18,22,28,,,,1.6,0.9,1.3*34
$GPRMC,062900.000,A,5057.3329,N,00706.8862,E,6.54,324.55,230408,,,A*65
$GPGGA,062901.000,5057.3348,N,00706.8850,E,1,09,0.9,82.7,M,47.7,M,,0000*66
$GPGSA,A,3,03,06,32,14,19,11,18,22,28,,,,1.6,0.9,1.3*34
$GPRMC,062901.000,A,5057.3348,N,00706.8850,E,8.45,348.48,230408,,,A*6A
$GPGGA,062902.000,5057.3376,N,00706.8841,E,1,09,0.9,82.5,M,47.7,M,,0000*6A
$GPGSA,A,3,03,06,32,14,19,11,18,22,28,,,,1.6,0.9,1.3*34
$GPGSV,3,1,09,19,82,231,43,03,54,155,44,22,53,071,43,32,48,185,43*75
$GPGSV,3,2,09,14,22,116,36,11,21,271,42,18,18,047,25,06,14,135,34*71
$GPGSV,3,3,09,28,10,329,28*49
$GPRMC,062902.000,A,5057.3376,N,00706.8841,E,11.65,351.52,230408,,,A*5D
$GPGGA,062903.000,5057.3410,N,00706.8834,E,1,09,0.9,82.3,M,47.7,M,,0000*68
$GPGSA,A,3,03,06,32,14,19,11,18,22,28,,,,1.6,0.9,1.3*34
$GPRMC,062903.000,A,5057.3410,N,00706.8834,E,12.86,353.64,230408,,,A*50
$GPGGA,062904.000,5057.3444,N,00706.8828,E,1,09,0.9,82.3,M,47.7,M,,0000*63
$GPGSA,A,3,03,06,32,14,19,11,18,22,28,,,,1.6,0.9,1.3*34
$GPRMC,062904.000,A,5057.3444,N,00706.8828,E,12.08,356.47,230408,,,A*59
$GPGGA,062905.000,5057.3475,N,00706.8824,E,1,09,0.9,82.7,M,47.7,M,,0000*68
$GPGSA,A,3,03,06,32,14,19,11,18,22,28,,,,1.6,0.9,1.3*34
$GPRMC,062905.000,A,5057.3475,N,00706.8824,E,10.92,357.67,230408,,,A*54
$GPGGA,062906.000,5057.3505,N,00706.8821,E,1,09,0.9,83.4,M,47.7,M,,0000*6A
$GPGSA,A,3,03,06,32,14,19,11,18,22,28,,,,1.6,0.9,1.3*34
$GPRMC,062906.000,A,5057.3505,N,00706.8821,E,10.60,356.83,230408,,,A*52
$GPGGA,062907.000,5057.3534,N,00706.8818,E,1,09,0.9,84.0,M,47.7,M,,0000*60
$GPGSA,A,3,03,06,32,14,19,11,18,22,28,,,,1.6,0.9,1.3*34
$GPGSV,3,1,09,19,82,231,43,03,54,155,43,22,53,071,44,32,48,185,42*74
$GPGSV,3,2,09,14,22,116,22,11,21,271,32,18,18,047,35,06,14,135,21*76
$GPGSV,3,3,09,28,10,329,15*47
$GPRMC,062907.000,A,5057.3534,N,00706.8818,E,10.45,356.61,230408,,,A*50
$GPGGA,062908.000,5057.3563,N,00706.8816,E,1,09,0.9,84.5,M,47.7,M,,0000*66
$GPGSA,A,3,03,06,32,14,19,11,18,22,28,,,,1.6,0.9,1.3*34
$GPRMC,062908.000,A,5057.3563,N,00706.8816,E,10.06,356.25,230408,,,A*54
$GPGGA,062909.000,5057.3590,N,00706.8813,E,1,09,0.9,85.0,M,47.7,M,,0000*6A
$GPGSA,A,3,03,06,32,14,19,11,18,22,28,,,,1.6,0.9,1.3*34
$GPRMC,062909.000,A,5057.3590,N,00706.8813,E,9.35,357.24,230408,,,A*64
$GPGGA,062910.000,5057.3616,N,00706.8811,E,1,09,0.9,85.4,M,47.7,M,,0000*69
$GPGSA,A,3,03,06,32,14,19,11,18,22,28,,,,1.6,0.9,1.3*34
$GPRMC,062910.000,A,5057.3616,N,00706.8811,E,8.66,358.03,230408,,,A*6E
$GPGGA,062911.000,5057.3638,N,00706.8810,E,1,09,0.9,85.6,M,47.7,M,,0000*67
$GPGSA,A,3,03,06,32,14,19,11,18,22,28,,,,1.6,0.9,1.3*34
$GPRMC,062911.000,A,5057.3638,N,00706.8810,E,7.56,356.29,230408,,,A*68
$GPGGA,062912.000,5057.3655,N,00706.8810,E,1,09,0.9,85.7,M,47.7,M,,0000*6E
$GPGSA,A,3,03,06,32,14,19,11,18,22,28,,,,1.6,0.9,1.3*34
$GPGSV,3,1,09,19,82,231,44,03,54,155,43,22,53,071,44,32,48,185,42*73
$GPGSV,3,2,09,14,22,116,36,11,21,271,23,18,18,047,41,06,14,135,24*75
$GPGSV,3,3,09,28,10,329,24*45
$GPRMC,062912.000,A,5057.3655,N,00706.8810,E,4.52,357.53,230408,,,A*6B
$GPGGA,062913.000,5057.3664,N,00706.8812,E,1,09,0.9,85.6,M,47.7,M,,0000*6E
$GPGSA,A,3,03,06,32,14,19,11,18,22,28,,,,1.6,0.9,1.3*34
$GPRMC,062913.000,A,5057.3664,N,00706.8812,E,2.26,357.13,230408,,,A*6B
$GPGGA,062914.000,5057.3667,N,00706.8812,E,1,09,0.9,85.5,M,47.7,M,,0000*69
$GPGSA,A,3,03,06,32,14,19,11,18,22,28,,,,1.6,0.9,1.3*34
$GPRMC,062914.000,A,5057.3667,N,00706.8812,E,0.25,36.32,230408,,,A*59
$GPGGA,062915.000,5057.3668,N,00706.8811,E,1,09,0.9,85.3,M,47.7,M,,0000*62
$GPGSA,A,3,03,06,32,14,19,11,18,22,28,,,,1.6,0.9,1.3*34
$GPRMC,062915.000,A,5057.3668,N,00706.8811,E,0.08,79.38,230408,,,A*5A
$GPGGA,062916.000,5057.3668,N,00706.8809,E,1,09,0.9,85.3,M,47.7,M,,0000*68
$GPGSA,A,3,03,06,32,14,19,11,18,22,28,,,,1.6,0.9,1.3*34
$GPRMC,062916.000,A,5057.3668,N,00706.8809,E,0.07,56.84,230408,,,A*55
