$GPGGA,161437.000,5059.1753,N,00707.2593,E,1,08,1.2,82.4,M,47.6,M,,0000*6E
$GPGGA,161438.000,5059.1700,N,00707.2579,E,1,08,1.2,82.6,M,47.6,M,,0000*61
$GPGGA,161439.000,5059.1658,N,00707.2569,E,1,08,1.2,82.7,M,47.6,M,,0000*6C
$GPGGA,161440.000,5059.1625,N,00707.2576,E,1,07,1.5,82.4,M,47.6,M,,0000*6D
$GPGGA,161441.000,5059.1598,N,00707.2607,E,1,07,1.5,81.9,M,47.6,M,,0000*62
$GPGGA,161442.000,5059.1574,N,00707.2663,E,1,08,1.1,80.2,M,47.6,M,,0000*60
$GPGGA,161443.000,5059.1548,N,00707.2732,E,1,07,1.5,79.5,M,47.6,M,,0000*61
$GPGGA,161444.000,5059.1520,N,00707.2811,E,1,07,1.5,78.6,M,47.6,M,,0000*64
$GPGGA,161445.000,5059.1490,N,00707.2894,E,1,08,1.1,78.1,M,47.6,M,,0000*6E
$GPGGA,161446.000,5059.1460,N,00707.2980,E,1,07,1.5,77.4,M,47.6,M,,0000*67
$GPGGA,161447.000,5059.1429,N,00707.3069,E,1,07,1.5,76.6,M,47.6,M,,0000*67
$GPGGA,161448.000,5059.1397,N,00707.3157,E,1,08,1.1,76.4,M,47.6,M,,0000*6F
$GPGGA,161449.000,5059.1363,N,00707.3243,E,1,08,1.1,76.6,M,47.6,M,,0000*61
$GPGGA,161450.000,5059.1330,N,00707.3331,E,1,08,1.1,76.9,M,47.6,M,,0000*64
$GPGGA,161451.000,5059.1300,N,00707.3419,E,1,08,1.1,76.9,M,47.6,M,,0000*6B
$GPGGA,161452.000,5059.1271,N,00707.3505,E,1,09,1.0,77.0,M,47.6,M,,0000*6B
$GPGGA,161453.000,5059.1244,N,00707.3593,E,1,09,1.0,76.8,M,47.6,M,,0000*6A
$GPGGA,161454.000,5059.1223,N,00707.3686,E,1,09,1.0,76.4,M,47.6,M,,0000*67
$GPGGA,161455.000,5059.1208,N,00707.3782,E,1,09,1.0,76.3,M,47.6,M,,0000*6D
$GPGGA,161456.000,5059.1193,N,00707.3879,E,1,09,1.0,76.4,M,47.6,M,,0000*63
$GPGGA,161457.000,5059.1179,N,00707.3978,E,1,09,1.0,76.4,M,47.6,M,,0000*66
$GPGGA,161458.000,5059.1164,N,00707.4078,E,1,09,1.0,76.2,M,47.6,M,,0000*6D
$GPGGA,161459.000,5059.1148,N,00707.4178,E,1,09,1.0,76.0,M,47.6,M,,0000*61
$GPGGA,161500.000,5059.1131,N,00707.4274,E,1,09,1.0,76.2,M,47.6,M,,0000*6F
$GPGGA,161501.000,5059.1115,N,00707.4364,E,1,09,1.0,76.3,M,47.6,M,,0000*69
$GPGGA,161502.000,5059.1099,N,00707.4443,E,1,09,1.0,76.5,M,47.6,M,,0000*6B
$GPGGA,161503.000,5059.1086,N,00707.4509,E,1,09,1.0,76.9,M,47.6,M,,0000*67
$GPGGA,161504.000,5059.1072,N,00707.4561,E,1,08,1.1,77.0,M,47.6,M,,0000*6D
$GPGGA,161505.000,5059.1056,N,00707.4597,E,1,08,1.1,77.8,M,47.6,M,,0000*6B
$GPGGA,161506.000,5059.1043,N,00707.4619,E,1,09,1.0,77.6,M,47.6,M,,0000*67
$GPGGA,161507.000,5059.1036,N,00707.4626,E,1,09,1.0,77.9,M,47.6,M,,0000*67
$GPGGA,161508.000,5059.1034,N,00707.4629,E,1,09,1.0,78.0,M,47.6,M,,0000*63
$GPGGA,161509.000,5059.1032,N,00707.4630,E,1,09,1.0,78.3,M,47.6,M,,0000*6F
$GPGGA,161510.000,5059.1029,N,00707.4634,E,1,09,1.0,78.6,M,47.6,M,,0000*6C
$GPGGA,161511.000,5059.1025,N,00707.4639,E,1,09,1.0,78.7,M,47.6,M,,0000*6D
$GPGGA,161512.000,5059.1021,N,00707.4641,E,1,09,1.0,78.9,M,47.6,M,,0000*6B
$GPGGA,161513.000,5059.1015,N,00707.4643,E,1,09,1.0,79.2,M,47.6,M,,0000*65
$GPGGA,161514.000,5059.1003,N,00707.4641,E,1,09,1.0,79.5,M,47.6,M,,0000*60
$GPGGA,161515.000,5059.0987,N,00707.4633,E,1,09,1.0,79.5,M,47.6,M,,0000*60
$GPGGA,161516.000,5059.0964,N,00707.4610,E,1,09,1.0,79.6,M,47.6,M,,0000*6C
$GPGGA,161517.000,5059.0936,N,00707.4573,E,1,09,1.0,79.6,M,47.6,M,,0000*6C
$GPGGA,161518.000,5059.0906,N,00707.4528,E,1,09,1.0,79.5,M,47.6,M,,0000*6D
$GPGGA,161519.000,5059.0876,N,00707.4482,E,1,09,1.0,79.5,M,47.6,M,,0000*6B
$GPGGA,161520.000,5059.0846,N,00707.4435,E,1,09,1.0,79.5,M,47.6,M,,0000*6E
$GPGGA,161521.000,5059.0816,N,00707.4389,E,1,09,1.0,79.6,M,47.6,M,,0000*69
$GPGGA,161522.000,5059.0784,N,00707.4346,E,1,09,1.0,79.5,M,47.6,M,,0000*6E
$GPGGA,161523.000,5059.0749,N,00707.4303,E,1,09,1.0,79.7,M,47.6,M,,0000*6D
$GPGGA,161524.000,5059.0716,N,00707.4265,E,1,09,1.0,79.7,M,47.6,M,,0000*61
$GPGGA,161525.000,5059.0687,N,00707.4233,E,1,09,1.0,79.5,M,47.6,M,,0000*68
$GPGGA,161526.000,5059.0664,N,00707.4206,E,1,09,1.0,79.3,M,47.6,M,,0000*66
$GPGGA,161527.000,5059.0645,N,00707.4185,E,1,09,1.0,79.4,M,47.6,M,,0000*6B
$GPGGA,161528.000,5059.0629,N,00707.4173,E,1,09,1.0,79.3,M,47.6,M,,0000*60
$GPGGA,161529.000,5059.0609,N,00707.4173,E,1,09,1.0,79.1,M,47.6,M,,0000*61
$GPGGA,161530.000,5059.0587,N,00707.4191,E,1,09,1.0,78.9,M,47.6,M,,0000*69
$GPGGA,161531.000,5059.0569,N,00707.4220,E,1,09,1.0,79.0,M,47.6,M,,0000*69
$GPGGA,161532.000,5059.0559,N,00707.4254,E,1,09,1.0,79.0,M,47.6,M,,0000*6A
$GPGGA,161533.000,5059.0554,N,00707.4290,E,1,09,1.0,79.2,M,47.6,M,,0000*6C
$GPGGA,161534.000,5059.0552,N,00707.4331,E,1,09,1.0,79.2,M,47.6,M,,0000*67
$GPGGA,161535.000,5059.0551,N,00707.4377,E,1,09,1.0,79.1,M,47.6,M,,0000*64
$GPGGA,161536.000,5059.0551,N,00707.4429,E,1,09,1.0,79.0,M,47.6,M,,0000*6A
$GPGGA,161537.000,5059.0552,N,00707.4488,E,1,09,1.0,79.0,M,47.6,M,,0000*63
$GPGGA,161538.000,5059.0552,N,00707.4549,E,1,09,1.0,79.0,M,47.6,M,,0000*60
$GPGGA,161539.000,5059.0554,N,00707.4612,E,1,09,1.0,79.3,M,47.6,M,,0000*69
$GPGGA,161540.000,5059.0555,N,00707.4676,E,1,09,1.0,79.8,M,47.6,M,,0000*6F
$GPGGA,161541.000,5059.0557,N,00707.4740,E,1,09,1.0,80.3,M,47.6,M,,0000*65
$GPGGA,161542.000,5059.0559,N,00707.4804,E,1,09,1.0,80.5,M,47.6,M,,0000*61
$GPGGA,161543.000,5059.0560,N,00707.4869,E,1,09,1.0,80.5,M,47.6,M,,0000*61
$GPGGA,161544.000,5059.0562,N,00707.4935,E,1,09,1.0,80.5,M,47.6,M,,0000*6C
$GPGGA,161545.000,5059.0563,N,00707.5000,E,1,09,1.0,80.6,M,47.6,M,,0000*61
$GPGGA,161546.000,5059.0564,N,00707.5066,E,1,09,1.0,80.6,M,47.6,M,,0000*65
$GPGGA,161547.000,5059.0564,N,00707.5135,E,1,09,1.0,80.7,M,47.6,M,,0000*62
$GPGGA,161548.000,5059.0564,N,00707.5203,E,1,09,1.0,81.1,M,47.6,M,,0000*6C
$GPGGA,161549.000,5059.0564,N,00707.5267,E,1,09,1.0,81.5,M,47.6,M,,0000*6B
$GPGGA,161550.000,5059.0564,N,00707.5326,E,1,09,1.0,81.8,M,47.6,M,,0000*6A
$GPGGA,161551.000,5059.0562,N,00707.5379,E,1,09,1.0,81.7,M,47.6,M,,0000*68
$GPGGA,161552.000,5059.0559,N,00707.5425,E,1,09,1.0,81.6,M,47.6,M,,0000*6C
$GPGGA,161553.000,5059.0557,N,00707.5465,E,1,09,1.0,81.5,M,47.6,M,,0000*64
$GPGGA,161554.000,5059.0556,N,00707.5494,E,1,09,1.0,81.5,M,47.6,M,,0000*6C
$GPGGA,161555.000,5059.0558,N,00707.5510,E,1,09,1.0,81.7,M,47.6,M,,0000*6C
$GPGGA,161556.000,5059.0560,N,00707.5521,E,1,09,1.0,81.8,M,47.6,M,,0000*69
$GPGGA,161557.000,5059.0569,N,00707.5534,E,1,09,1.0,81.9,M,47.6,M,,0000*64
$GPGGA,161558.000,5059.0584,N,00707.5544,E,1,09,1.0,81.9,M,47.6,M,,0000*6F
$GPGGA,161559.000,5059.0603,N,00707.5544,E,1,09,1.0,82.1,M,47.6,M,,0000*69
$GPGGA,161600.000,5059.0627,N,00707.5540,E,1,09,1.0,82.1,M,47.6,M,,0000*64
$GPGGA,161601.000,5059.0651,N,00707.5533,E,1,09,1.0,82.2,M,47.6,M,,0000*63
$GPGGA,161602.000,5059.0677,N,00707.5526,E,1,09,1.0,82.4,M,47.6,M,,0000*66
$GPGGA,161603.000,5059.0705,N,00707.5524,E,1,09,1.0,82.6,M,47.6,M,,0000*63
$GPGGA,161604.000,5059.0731,N,00707.5530,E,1,09,1.0,82.9,M,47.6,M,,0000*69
$GPGGA,161605.000,5059.0759,N,00707.5543,E,1,09,1.0,83.4,M,47.6,M,,0000*6E
$GPGGA,161606.000,5059.0788,N,00707.5557,E,1,09,1.0,83.8,M,47.6,M,,0000*68
$GPGGA,161607.000,5059.0818,N,00707.5567,E,1,09,1.0,84.2,M,47.6,M,,0000*61
$GPGGA,161608.000,5059.0841,N,00707.5572,E,1,09,1.0,84.6,M,47.6,M,,0000*62
$GPGGA,161609.000,5059.0858,N,00707.5569,E,1,09,1.0,85.0,M,47.6,M,,0000*66
$GPGGA,161610.000,5059.0869,N,00707.5550,E,1,09,1.0,85.1,M,47.6,M,,0000*67
$GPGGA,161611.000,5059.0872,N,00707.5519,E,1,09,1.0,85.2,M,47.6,M,,0000*62
$GPGGA,161612.000,5059.0869,N,00707.5480,E,1,09,1.0,85.5,M,47.6,M,,0000*6D
$GPGGA,161613.000,5059.0864,N,00707.5434,E,1,08,1.1,86.2,M,47.6,M,,0000*6A
$GPGGA,161614.000,5059.0862,N,00707.5385,E,1,09,1.0,86.1,M,47.6,M,,0000*65
$GPGGA,161615.000,5059.0861,N,00707.5336,E,1,09,1.0,86.0,M,47.6,M,,0000*6E
$GPGGA,161616.000,5059.0863,N,00707.5286,E,1,09,1.0,85.9,M,47.6,M,,0000*6F
$GPGGA,161617.000,5059.0865,N,00707.5240,E,1,09,1.0,86.0,M,47.6,M,,0000*68
$GPGGA,161618.000,5059.0870,N,00707.5196,E,1,09,1.0,86.4,M,47.6,M,,0000*6F
$GPGGA,161619.000,5059.0877,N,00707.5155,E,1,09,1.0,86.9,M,47.6,M,,0000*6B
$GPGGA,161620.000,5059.0888,N,00707.5113,E,1,09,1.0,87.1,M,47.6,M,,0000*6A
$GPGGA,161621.000,5059.0902,N,00707.5072,E,1,09,1.0,87.2,M,47.6,M,,0000*6D
$GPGGA,161622.000,5059.0920,N,00707.5036,E,1,09,1.0,87.2,M,47.6,M,,0000*6E
$GPGGA,161623.000,5059.0941,N,00707.5006,E,1,09,1.0,87.0,M,47.6,M,,0000*69
$GPGGA,161624.000,5059.0964,N,00707.4986,E,1,09,1.0,86.9,M,47.6,M,,0000*61
$GPGGA,161625.000,5059.0990,N,00707.4976,E,1,09,1.0,86.6,M,47.6,M,,0000*6B
$GPGGA,161626.000,5059.1012,N,00707.4968,E,1,09,1.0,86.4,M,47.6,M,,0000*67
$GPGGA,161627.000,5059.1027,N,00707.4950,E,1,09,1.0,86.2,M,47.6,M,,0000*6D
$GPGGA,161628.000,5059.1029,N,00707.4925,E,1,09,1.0,86.0,M,47.6,M,,0000*6C
$GPGGA,161629.000,5059.1021,N,00707.4908,E,1,09,1.0,85.9,M,47.6,M,,0000*60
$GPGGA,161630.000,5059.1008,N,00707.4904,E,1,09,1.0,85.4,M,47.6,M,,0000*62
$GPGGA,161631.000,5059.0996,N,00707.4913,E,1,09,1.0,85.1,M,47.6,M,,0000*6F
$GPGGA,161632.000,5059.0986,N,00707.4930,E,1,09,1.0,85.0,M,47.6,M,,0000*6D
$GPGGA,161633.000,5059.0975,N,00707.4956,E,1,09,1.0,85.0,M,47.6,M,,0000*60
$GPGGA,161634.000,5059.0959,N,00707.4986,E,1,09,1.0,84.5,M,47.6,M,,0000*60
$GPGGA,161635.000,5059.0939,N,00707.5018,E,1,09,1.0,84.3,M,47.6,M,,0000*6E
$GPGGA,161636.000,5059.0918,N,00707.5053,E,1,09,1.0,84.1,M,47.6,M,,0000*63
$GPGGA,161637.000,5059.0900,N,00707.5095,E,1,09,1.0,83.7,M,47.6,M,,0000*60
$GPGGA,161638.000,5059.0887,N,00707.5144,E,1,09,1.0,84.0,M,47.6,M,,0000*6C
$GPGGA,161639.000,5059.0878,N,00707.5196,E,1,09,1.0,84.3,M,47.6,M,,0000*61
$GPGGA,161640.000,5059.0872,N,00707.5248,E,1,09,1.0,84.4,M,47.6,M,,0000*62
$GPGGA,161641.000,5059.0868,N,00707.5300,E,1,09,1.0,84.3,M,47.6,M,,0000*62
$GPGGA,161642.000,5059.0867,N,00707.5350,E,1,09,1.0,84.3,M,47.6,M,,0000*6B
$GPGGA,161643.000,5059.0867,N,00707.5398,E,1,09,1.0,84.5,M,47.6,M,,0000*68
$GPGGA,161644.000,5059.0869,N,00707.5444,E,1,08,1.1,84.5,M,47.6,M,,0000*67
$GPGGA,161645.000,5059.0872,N,00707.5485,E,1,08,1.1,84.5,M,47.6,M,,0000*61
$GPGGA,161646.000,5059.0871,N,00707.5520,E,1,09,1.0,84.8,M,47.6,M,,0000*62
$GPGGA,161647.000,5059.0864,N,00707.5549,E,1,08,1.2,84.9,M,47.6,M,,0000*6A
$GPGGA,161648.000,5059.0847,N,00707.5567,E,1,08,1.2,85.0,M,47.6,M,,0000*60
$GPGGA,161649.000,5059.0823,N,00707.5575,E,1,08,1.2,84.5,M,47.6,M,,0000*64
$GPGGA,161650.000,5059.0792,N,00707.5571,E,1,07,1.5,84.2,M,47.6,M,,0000*62
$GPGGA,161651.000,5059.0758,N,00707.5558,E,1,07,1.5,83.8,M,47.6,M,,0000*63
$GPGGA,161652.000,5059.0724,N,00707.5543,E,1,07,1.5,83.7,M,47.6,M,,0000*6E
$GPGGA,161653.000,5059.0691,N,00707.5539,E,1,08,1.1,82.3,M,47.6,M,,0000*63
$GPGGA,161654.000,5059.0658,N,00707.5540,E,1,08,1.1,81.7,M,47.6,M,,0000*68
$GPGGA,161655.000,5059.0631,N,00707.5542,E,1,08,1.1,81.9,M,47.6,M,,0000*6A
$GPGGA,161656.000,5059.0611,N,00707.5543,E,1,08,1.1,81.5,M,47.6,M,,0000*66
$GPGGA,161657.000,5059.0598,N,00707.5543,E,1,09,1.0,81.4,M,47.6,M,,0000*64
$GPGGA,161658.000,5059.0590,N,00707.5544,E,1,09,1.0,81.5,M,47.6,M,,0000*65
$GPGGA,161659.000,5059.0585,N,00707.5546,E,1,09,1.0,81.0,M,47.6,M,,0000*67
$GPGGA,161700.000,5059.0580,N,00707.5550,E,1,09,1.0,80.9,M,47.6,M,,0000*60
$GPGGA,161701.000,5059.0570,N,00707.5555,E,1,09,1.0,80.5,M,47.6,M,,0000*67
$GPGGA,161702.000,5059.0552,N,00707.5567,E,1,09,1.0,80.5,M,47.6,M,,0000*65
$GPGGA,161703.000,5059.0531,N,00707.5585,E,1,09,1.0,80.7,M,47.6,M,,0000*6F
$GPGGA,161704.000,5059.0512,N,00707.5609,E,1,09,1.0,80.9,M,47.6,M,,0000*60
$GPGGA,161705.000,5059.0492,N,00707.5636,E,1,09,1.0,80.8,M,47.6,M,,0000*65
$GPGGA,161706.000,5059.0471,N,00707.5662,E,1,09,1.0,80.7,M,47.6,M,,0000*65
$GPGGA,161707.000,5059.0446,N,00707.5687,E,1,09,1.0,80.7,M,47.6,M,,0000*6B
$GPGGA,161708.000,5059.0421,N,00707.5713,E,1,09,1.0,80.8,M,47.6,M,,0000*66
$GPGGA,161709.000,5059.0395,N,00707.5740,E,1,09,1.0,80.9,M,47.6,M,,0000*68
$GPGGA,161710.000,5059.0368,N,00707.5770,E,1,09,1.0,81.0,M,47.6,M,,0000*69
$GPGGA,161711.000,5059.0341,N,00707.5801,E,1,09,1.0,81.4,M,47.6,M,,0000*6E
$GPGGA,161712.000,5059.0315,N,00707.5832,E,1,09,1.0,81.8,M,47.6,M,,0000*60
$GPGGA,161713.000,5059.0291,N,00707.5861,E,1,09,1.0,82.2,M,47.6,M,,0000*63
$GPGGA,161714.000,5059.0270,N,00707.5888,E,1,08,1.1,82.4,M,47.6,M,,0000*6A
$GPGGA,161715.000,5059.0252,N,00707.5912,E,1,08,1.1,82.5,M,47.6,M,,0000*68
$GPGGA,161716.000,5059.0234,N,00707.5936,E,1,09,1.0,82.5,M,47.6,M,,0000*6D
$GPGGA,161717.000,5059.0218,N,00707.5961,E,1,09,1.0,82.5,M,47.6,M,,0000*60
$GPGGA,161718.000,5059.0203,N,00707.5984,E,1,08,1.1,82.6,M,47.6,M,,0000*6D
$GPGGA,161719.000,5059.0189,N,00707.6010,E,1,08,1.1,82.6,M,47.6,M,,0000*6A
$GPGGA,161720.000,5059.0175,N,00707.6042,E,1,08,1.1,82.7,M,47.6,M,,0000*65
$GPGGA,161721.000,5059.0161,N,00707.6077,E,1,08,1.1,82.8,M,47.6,M,,0000*68
$GPGGA,161722.000,5059.0148,N,00707.6113,E,1,08,1.2,82.7,M,47.6,M,,0000*6F
$GPGGA,161723.000,5059.0138,N,00707.6150,E,1,08,1.2,82.6,M,47.6,M,,0000*6F
$GPGGA,161724.000,5059.0127,N,00707.6186,E,1,08,1.2,82.6,M,47.6,M,,0000*6D
$GPGGA,161725.000,5059.0113,N,00707.6219,E,1,08,1.2,82.8,M,47.6,M,,0000*60
$GPGGA,161726.000,5059.0095,N,00707.6248,E,1,08,1.2,82.7,M,47.6,M,,0000*67
$GPGGA,161727.000,5059.0075,N,00707.6273,E,1,08,1.2,82.8,M,47.6,M,,0000*6F
$GPGGA,161728.000,5059.0055,N,00707.6295,E,1,08,1.2,82.8,M,47.6,M,,0000*6A
$GPGGA,161729.000,5059.0034,N,00707.6313,E,1,08,1.2,83.0,M,47.6,M,,0000*6A
$GPGGA,161730.000,5059.0013,N,00707.6330,E,1,09,1.0,83.2,M,47.6,M,,0000*67
$GPGGA,161731.000,5058.9995,N,00707.6346,E,1,09,1.0,83.7,M,47.6,M,,0000*6D
$GPGGA,161732.000,5058.9977,N,00707.6362,E,1,09,1.0,84.0,M,47.6,M,,0000*64
$GPGGA,161733.000,5058.9960,N,00707.6378,E,1,09,1.0,84.7,M,47.6,M,,0000*6F
$GPGGA,161734.000,5058.9944,N,00707.6394,E,1,09,1.0,85.1,M,47.6,M,,0000*6B
$GPGGA,161735.000,5058.9926,N,00707.6409,E,1,09,1.0,85.0,M,47.6,M,,0000*6C
$GPGGA,161736.000,5058.9909,N,00707.6420,E,1,08,1.2,85.0,M,47.6,M,,0000*6A
$GPGGA,161737.000,5058.9894,N,00707.6427,E,1,08,1.2,84.9,M,47.6,M,,0000*61
$GPGGA,161738.000,5058.9882,N,00707.6433,E,1,09,1.0,84.6,M,47.6,M,,0000*60
$GPGGA,161739.000,5058.9876,N,00707.6439,E,1,09,1.0,84.5,M,47.6,M,,0000*63
$GPGGA,161740.000,5058.9873,N,00707.6444,E,1,09,1.0,84.7,M,47.6,M,,0000*60
$GPGGA,161741.000,5058.9872,N,00707.6447,E,1,09,1.0,84.3,M,47.6,M,,0000*67
$GPGGA,161742.000,5058.9872,N,00707.6448,E,1,09,1.0,84.4,M,47.6,M,,0000*6C
$GPGGA,161743.000,5058.9872,N,00707.6448,E,1,09,1.0,84.0,M,47.6,M,,0000*69
$GPGGA,161744.000,5058.9871,N,00707.6452,E,1,09,1.0,84.1,M,47.6,M,,0000*67
$GPGGA,161745.000,5058.9871,N,00707.6466,E,1,09,1.0,84.0,M,47.6,M,,0000*60
$GPGGA,161746.000,5058.9874,N,00707.6485,E,1,09,1.0,84.0,M,47.6,M,,0000*6B
$GPGGA,161747.000,5058.9878,N,00707.6503,E,1,09,1.0,84.1,M,47.6,M,,0000*68
$GPGGA,161748.000,5058.9883,N,00707.6518,E,1,09,1.0,84.1,M,47.6,M,,0000*69
$GPGGA,161749.000,5058.9888,N,00707.6531,E,1,09,1.0,84.2,M,47.6,M,,0000*6B
$GPGGA,161750.000,5058.9891,N,00707.6543,E,1,09,1.0,84.3,M,47.6,M,,0000*6F
$GPGGA,161751.000,5058.9893,N,00707.6552,E,1,09,1.0,84.3,M,47.6,M,,0000*6C
$GPGGA,161752.000,5058.9895,N,00707.6559,E,1,09,1.0,84.6,M,47.6,M,,0000*67
$GPGGA,161753.000,5058.9897,N,00707.6568,E,1,09,1.0,84.8,M,47.6,M,,0000*68
$GPGGA,161754.000,5058.9900,N,00707.6579,E,1,09,1.0,85.0,M,47.6,M,,0000*69
$GPGGA,161755.000,5058.9904,N,00707.6593,E,1,09,1.0,85.2,M,47.6,M,,0000*6A
$GPGGA,161756.000,5058.9909,N,00707.6608,E,1,09,1.0,85.2,M,47.6,M,,0000*65
$GPGGA,161757.000,5058.9913,N,00707.6623,E,1,09,1.0,85.4,M,47.6,M,,0000*60
$GPGGA,161758.000,5058.9919,N,00707.6638,E,1,09,1.0,85.4,M,47.6,M,,0000*6F
$GPGGA,161759.000,5058.9925,N,00707.6651,E,1,09,1.0,85.6,M,47.6,M,,0000*6C
$GPGGA,161800.000,5058.9931,N,00707.6665,E,1,08,1.1,85.5,M,47.6,M,,0000*6E
$GPGGA,161801.000,5058.9937,N,00707.6678,E,1,08,1.1,85.5,M,47.6,M,,0000*65
$GPGGA,161802.000,5058.9943,N,00707.6689,E,1,08,1.1,85.4,M,47.6,M,,0000*6A
$GPGGA,161803.000,5058.9949,N,00707.6701,E,1,08,1.1,85.2,M,47.6,M,,0000*66
$GPGGA,161804.000,5058.9954,N,00707.6715,E,1,08,1.1,85.0,M,47.6,M,,0000*6A
$GPGGA,161805.000,5058.9959,N,00707.6731,E,1,08,1.1,84.9,M,47.6,M,,0000*68
$GPGGA,161806.000,5058.9963,N,00707.6747,E,1,08,1.1,84.9,M,47.6,M,,0000*63
$GPGGA,161807.000,5058.9965,N,00707.6766,E,1,08,1.1,84.8,M,47.6,M,,0000*66
$GPGGA,161808.000,5058.9967,N,00707.6789,E,1,08,1.1,84.7,M,47.6,M,,0000*65
$GPGGA,161809.000,5058.9967,N,00707.6817,E,1,08,1.1,84.5,M,47.6,M,,0000*6E
$GPGGA,161810.000,5058.9967,N,00707.6848,E,1,08,1.1,84.4,M,47.6,M,,0000*6D
$GPGGA,161811.000,5058.9969,N,00707.6880,E,1,08,1.1,84.3,M,47.6,M,,0000*61
$GPGGA,161812.000,5058.9974,N,00707.6911,E,1,08,1.1,84.2,M,47.6,M,,0000*66
$GPGGA,161813.000,5058.9982,N,00707.6944,E,1,09,1.0,84.4,M,47.6,M,,0000*68
$GPGGA,161814.000,5058.9990,N,00707.6978,E,1,09,1.0,84.3,M,47.6,M,,0000*64
$GPGGA,161815.000,5058.9999,N,00707.7011,E,1,09,1.0,84.4,M,47.6,M,,0000*6C
$GPGGA,161816.000,5059.0009,N,00707.7046,E,1,09,1.0,84.4,M,47.6,M,,0000*65
$GPGGA,161817.000,5059.0020,N,00707.7082,E,1,07,1.6,84.4,M,47.6,M,,0000*6F
$GPGGA,161818.000,5059.0030,N,00707.7118,E,1,08,1.2,84.3,M,47.6,M,,0000*6F
$GPGGA,161819.000,5059.0040,N,00707.7153,E,1,07,1.7,84.4,M,47.6,M,,0000*6B
$GPGGA,161820.000,5059.0045,N,00707.7186,E,1,07,1.7,84.1,M,47.6,M,,0000*69
$GPGGA,161821.000,5059.0047,N,00707.7218,E,1,09,1.0,83.8,M,47.6,M,,0000*69
$GPGGA,161822.000,5059.0042,N,00707.7245,E,1,09,1.0,83.8,M,47.6,M,,0000*67
$GPGGA,161823.000,5059.0031,N,00707.7263,E,1,09,1.0,83.5,M,47.6,M,,0000*6B
$GPGGA,161824.000,5059.0012,N,00707.7277,E,1,09,1.0,83.4,M,47.6,M,,0000*69
$GPGGA,161825.000,5058.9991,N,00707.7293,E,1,09,1.0,83.3,M,47.6,M,,0000*6F
$GPGGA,161826.000,5058.9969,N,00707.7308,E,1,09,1.0,83.7,M,47.6,M,,0000*6C
$GPGGA,161827.000,5058.9944,N,00707.7323,E,1,09,1.0,83.8,M,47.6,M,,0000*64
$GPGGA,161828.000,5058.9919,N,00707.7338,E,1,09,1.0,83.9,M,47.6,M,,0000*68
$GPGGA,161829.000,5058.9895,N,00707.7353,E,1,09,1.0,84.0,M,47.6,M,,0000*6F
$GPGGA,161830.000,5058.9873,N,00707.7367,E,1,09,1.0,83.9,M,47.6,M,,0000*66
$GPGGA,161831.000,5058.9852,N,00707.7378,E,1,09,1.0,84.0,M,47.6,M,,0000*64
$GPGGA,161832.000,5058.9833,N,00707.7385,E,1,09,1.0,84.1,M,47.6,M,,0000*63
$GPGGA,161833.000,5058.9816,N,00707.7390,E,1,09,1.0,83.7,M,47.6,M,,0000*60
$GPGGA,161834.000,5058.9799,N,00707.7395,E,1,09,1.0,83.3,M,47.6,M,,0000*6E
$GPGGA,161835.000,5058.9778,N,00707.7399,E,1,09,1.0,83.3,M,47.6,M,,0000*6C
$GPGGA,161836.000,5058.9757,N,00707.7405,E,1,09,1.0,83.4,M,47.6,M,,0000*67
$GPGGA,161837.000,5058.9737,N,00707.7408,E,1,09,1.0,83.3,M,47.6,M,,0000*6A
$GPGGA,161838.000,5058.9716,N,00707.7411,E,1,09,1.0,82.7,M,47.6,M,,0000*6B
$GPGGA,161839.000,5058.9694,N,00707.7414,E,1,09,1.0,82.7,M,47.6,M,,0000*64
$GPGGA,161840.000,5058.9677,N,00707.7419,E,1,09,1.0,83.0,M,47.6,M,,0000*6C
$GPGGA,161841.000,5058.9663,N,00707.7422,E,1,09,1.0,82.9,M,47.6,M,,0000*68
$GPGGA,161842.000,5058.9655,N,00707.7423,E,1,09,1.0,83.1,M,47.6,M,,0000*66
$GPGGA,161843.000,5058.9652,N,00707.7422,E,1,09,1.0,83.3,M,47.6,M,,0000*63
$GPGGA,161844.000,5058.9647,N,00707.7423,E,1,09,1.0,84.3,M,47.6,M,,0000*66
$GPGGA,161845.000,5058.9642,N,00707.7435,E,1,09,1.0,84.6,M,47.6,M,,0000*60
$GPGGA,161846.000,5058.9638,N,00707.7458,E,1,09,1.0,84.8,M,47.6,M,,0000*6B
$GPGGA,161847.000,5058.9636,N,00707.7489,E,1,09,1.0,84.7,M,47.6,M,,0000*67
$GPGGA,161848.000,5058.9634,N,00707.7527,E,1,09,1.0,84.8,M,47.6,M,,0000*60
$GPGGA,161849.000,5058.9634,N,00707.7571,E,1,09,1.0,85.0,M,47.6,M,,0000*6B
$GPGGA,161850.000,5058.9632,N,00707.7620,E,1,09,1.0,85.2,M,47.6,M,,0000*60
$GPGGA,161851.000,5058.9629,N,00707.7675,E,1,09,1.0,85.4,M,47.6,M,,0000*6D
$GPGGA,161852.000,5058.9627,N,00707.7737,E,1,09,1.0,85.5,M,47.6,M,,0000*66
$GPGGA,161853.000,5058.9624,N,00707.7803,E,1,09,1.0,85.8,M,47.6,M,,0000*61
$GPGGA,161854.000,5058.9619,N,00707.7866,E,1,09,1.0,85.6,M,47.6,M,,0000*65
$GPGGA,161855.000,5058.9611,N,00707.7924,E,1,09,1.0,85.7,M,47.6,M,,0000*6A
$GPGGA,161856.000,5058.9599,N,00707.7978,E,1,09,1.0,86.3,M,47.6,M,,0000*64
$GPGGA,161857.000,5058.9586,N,00707.8032,E,1,09,1.0,86.8,M,47.6,M,,0000*68
$GPGGA,161858.000,5058.9579,N,00707.8092,E,1,09,1.0,87.3,M,47.6,M,,0000*67
$GPGGA,161859.000,5058.9576,N,00707.8154,E,1,09,1.0,87.7,M,47.6,M,,0000*66
$GPGGA,161900.000,5058.9569,N,00707.8214,E,1,09,1.0,87.4,M,47.6,M,,0000*61
$GPGGA,161901.000,5058.9557,N,00707.8272,E,1,09,1.0,87.6,M,47.6,M,,0000*6F
$GPGGA,161902.000,5058.9542,N,00707.8334,E,1,08,1.2,87.6,M,47.6,M,,0000*68
$GPGGA,161903.000,5058.9527,N,00707.8404,E,1,08,1.2,87.5,M,47.6,M,,0000*6D
$GPGGA,161904.000,5058.9513,N,00707.8478,E,1,08,1.2,87.7,M,47.6,M,,0000*64
$GPGGA,161905.000,5058.9499,N,00707.8552,E,1,08,1.2,88.3,M,47.6,M,,0000*64
$GPGGA,161906.000,5058.9483,N,00707.8626,E,1,09,1.0,88.1,M,47.6,M,,0000*6D
$GPGGA,161907.000,5058.9467,N,00707.8700,E,1,09,1.0,88.0,M,47.6,M,,0000*62
$GPGGA,161908.000,5058.9450,N,00707.8770,E,1,09,1.0,89.1,M,47.6,M,,0000*6E
$GPGGA,161909.000,5058.9433,N,00707.8837,E,1,08,1.2,89.4,M,47.6,M,,0000*60
$GPGGA,161910.000,5058.9417,N,00707.8901,E,1,08,1.2,89.6,M,47.6,M,,0000*68
$GPGGA,161911.000,5058.9402,N,00707.8960,E,1,08,1.2,89.7,M,47.6,M,,0000*6B
$GPGGA,161912.000,5058.9389,N,00707.9013,E,1,08,1.2,89.8,M,47.6,M,,0000*6F
$GPGGA,161913.000,5058.9378,N,00707.9060,E,1,08,1.2,89.9,M,47.6,M,,0000*65
$GPGGA,161914.000,5058.9368,N,00707.9100,E,1,08,1.2,90.1,M,47.6,M,,0000*64
$GPGGA,161915.000,5058.9361,N,00707.9130,E,1,09,1.0,90.2,M,47.6,M,,0000*6F
$GPGGA,161916.000,5058.9356,N,00707.9147,E,1,09,1.0,90.6,M,47.6,M,,0000*6C
$GPGGA,161917.000,5058.9354,N,00707.9156,E,1,09,1.0,90.5,M,47.6,M,,0000*6C
$GPGGA,161918.000,5058.9354,N,00707.9161,E,1,09,1.0,90.1,M,47.6,M,,0000*63
$GPGGA,161919.000,5058.9354,N,00707.9164,E,1,09,1.0,90.2,M,47.6,M,,0000*64
$GPGGA,161920.000,5058.9354,N,00707.9165,E,1,09,1.0,90.6,M,47.6,M,,0000*6B
$GPGGA,161921.000,5058.9354,N,00707.9165,E,1,09,1.0,90.8,M,47.6,M,,0000*64
$GPGGA,161922.000,5058.9354,N,00707.9164,E,1,09,1.0,91.0,M,47.6,M,,0000*6F
$GPGGA,161923.000,5058.9354,N,00707.9166,E,1,09,1.0,91.2,M,47.6,M,,0000*6E
$GPGGA,161924.000,5058.9353,N,00707.9170,E,1,09,1.0,91.7,M,47.6,M,,0000*6C
$GPGGA,161925.000,5058.9353,N,00707.9179,E,1,09,1.0,91.8,M,47.6,M,,0000*6B
$GPGGA,161926.000,5058.9356,N,00707.9196,E,1,09,1.0,91.8,M,47.6,M,,0000*6C
$GPGGA,161927.000,5058.9364,N,00707.9215,E,1,09,1.0,91.8,M,47.6,M,,0000*64
$GPGGA,161928.000,5058.9378,N,00707.9229,E,1,09,1.0,92.1,M,47.6,M,,0000*63
$GPGGA,161929.000,5058.9395,N,00707.9240,E,1,09,1.0,92.4,M,47.6,M,,0000*6B
$GPGGA,161930.000,5058.9414,N,00707.9249,E,1,09,1.0,92.3,M,47.6,M,,0000*63
$GPGGA,161931.000,5058.9435,N,00707.9261,E,1,09,1.0,92.3,M,47.6,M,,0000*6B
$GPGGA,161932.000,5058.9456,N,00707.9275,E,1,09,1.0,92.4,M,47.6,M,,0000*6F
$GPGGA,161933.000,5058.9479,N,00707.9291,E,1,09,1.0,92.6,M,47.6,M,,0000*6B
$GPGGA,161934.000,5058.9501,N,00707.9310,E,1,09,1.0,92.5,M,47.6,M,,0000*69
$GPGGA,161935.000,5058.9524,N,00707.9331,E,1,08,1.1,91.9,M,47.6,M,,0000*63
$GPGGA,161936.000,5058.9546,N,00707.9354,E,1,09,1.0,91.5,M,47.6,M,,0000*6B
$GPGGA,161937.000,5058.9568,N,00707.9376,E,1,09,1.0,91.3,M,47.6,M,,0000*60
$GPGGA,161938.000,5058.9589,N,00707.9399,E,1,09,1.0,91.3,M,47.6,M,,0000*61
$GPGGA,161939.000,5058.9610,N,00707.9422,E,1,09,1.0,91.3,M,47.6,M,,0000*64
$GPGGA,161940.000,5058.9632,N,00707.9446,E,1,09,1.0,91.3,M,47.6,M,,0000*68
$GPGGA,161941.000,5058.9653,N,00707.9473,E,1,09,1.0,91.2,M,47.6,M,,0000*69
$GPGGA,161942.000,5058.9673,N,00707.9503,E,1,09,1.0,91.2,M,47.6,M,,0000*6E
$GPGGA,161943.000,5058.9695,N,00707.9537,E,1,09,1.0,91.3,M,47.6,M,,0000*61
$GPGGA,161944.000,5058.9718,N,00707.9569,E,1,09,1.0,91.3,M,47.6,M,,0000*69
$GPGGA,161945.000,5058.9741,N,00707.9595,E,1,09,1.0,91.4,M,47.6,M,,0000*60
$GPGGA,161946.000,5058.9765,N,00707.9617,E,1,09,1.0,91.5,M,47.6,M,,0000*6D
$GPGGA,161947.000,5058.9789,N,00707.9638,E,1,09,1.0,91.8,M,47.6,M,,0000*6E
$GPGGA,161948.000,5058.9807,N,00707.9660,E,1,09,1.0,91.4,M,47.6,M,,0000*69
$GPGGA,161949.000,5058.9822,N,00707.9684,E,1,09,1.0,91.0,M,47.6,M,,0000*61
$GPGGA,161950.000,5058.9838,N,00707.9710,E,1,09,1.0,91.4,M,47.6,M,,0000*6A
$GPGGA,161951.000,5058.9855,N,00707.9735,E,1,09,1.0,91.5,M,47.6,M,,0000*66
$GPGGA,161952.000,5058.9874,N,00707.9755,E,1,09,1.0,91.8,M,47.6,M,,0000*6D
$GPGGA,161953.000,5058.9895,N,00707.9770,E,1,09,1.0,92.4,M,47.6,M,,0000*6B
$GPGGA,161954.000,5058.9916,N,00707.9782,E,1,09,1.0,92.8,M,47.6,M,,0000*67
$GPGGA,161955.000,5058.9936,N,00707.9794,E,1,09,1.0,93.2,M,47.6,M,,0000*68
$GPGGA,161956.000,5058.9955,N,00707.9806,E,1,09,1.0,93.3,M,47.6,M,,0000*6B
$GPGGA,161957.000,5058.9972,N,00707.9816,E,1,09,1.0,93.8,M,47.6,M,,0000*65
$GPGGA,161958.000,5058.9989,N,00707.9823,E,1,09,1.0,94.2,M,47.6,M,,0000*65
$GPGGA,161959.000,5059.0003,N,00707.9828,E,1,09,1.0,94.6,M,47.6,M,,0000*68
$GPGGA,162000.000,5059.0010,N,00707.9830,E,1,09,1.0,95.0,M,47.6,M,,0000*62
$GPGGA,162001.000,5059.0012,N,00707.9831,E,1,09,1.0,95.2,M,47.6,M,,0000*62
$GPGGA,162002.000,5059.0012,N,00707.9831,E,1,09,1.0,95.5,M,47.6,M,,0000*66
$GPGGA,162003.000,5059.0012,N,00707.9831,E,1,09,1.0,95.7,M,47.6,M,,0000*65
$GPGGA,162004.000,5059.0012,N,00707.9831,E,1,09,1.0,95.8,M,47.6,M,,0000*6D
$GPGGA,162005.000,5059.0012,N,00707.9831,E,1,09,1.0,96.0,M,47.6,M,,0000*67
$GPGGA,162006.000,5059.0013,N,00707.9832,E,1,09,1.0,96.2,M,47.6,M,,0000*64
$GPGGA,162007.000,5059.0020,N,00707.9834,E,1,09,1.0,96.2,M,47.6,M,,0000*63
$GPGGA,162008.000,5059.0031,N,00707.9846,E,1,09,1.0,96.5,M,47.6,M,,0000*6E
$GPGGA,162009.000,5059.0044,N,00707.9871,E,1,09,1.0,96.9,M,47.6,M,,0000*65
$GPGGA,162010.000,5059.0059,N,00707.9906,E,1,09,1.0,96.9,M,47.6,M,,0000*60
$GPGGA,162011.000,5059.0077,N,00707.9945,E,1,09,1.0,97.0,M,47.6,M,,0000*62
$GPGGA,162012.000,5059.0094,N,00707.9982,E,1,09,1.0,97.1,M,47.6,M,,0000*66
$GPGGA,162013.000,5059.0110,N,00708.0012,E,1,09,1.0,97.2,M,47.6,M,,0000*6F
$GPGGA,162014.000,5059.0125,N,00708.0037,E,1,09,1.0,97.3,M,47.6,M,,0000*68
$GPGGA,162015.000,5059.0139,N,00708.0057,E,1,09,1.0,97.5,M,47.6,M,,0000*64
$GPGGA,162016.000,5059.0156,N,00708.0073,E,1,09,1.0,97.5,M,47.6,M,,0000*68
$GPGGA,162017.000,5059.0177,N,00708.0093,E,1,09,1.0,97.4,M,47.6,M,,0000*65
$GPGGA,162018.000,5059.0200,N,00708.0126,E,1,09,1.0,97.5,M,47.6,M,,0000*67
$GPGGA,162019.000,5059.0222,N,00708.0168,E,1,09,1.0,97.6,M,47.6,M,,0000*6F
$GPGGA,162020.000,5059.0246,N,00708.0212,E,1,09,1.0,97.6,M,47.6,M,,0000*69
$GPGGA,162021.000,5059.0269,N,00708.0255,E,1,09,1.0,97.6,M,47.6,M,,0000*66
$GPGGA,162022.000,5059.0289,N,00708.0296,E,1,09,1.0,97.9,M,47.6,M,,0000*6B
$GPGGA,162023.000,5059.0308,N,00708.0332,E,1,09,1.0,97.9,M,47.6,M,,0000*6D
$GPGGA,162024.000,5059.0324,N,00708.0364,E,1,09,1.0,98.0,M,47.6,M,,0000*61
$GPGGA,162025.000,5059.0341,N,00708.0397,E,1,09,1.0,98.4,M,47.6,M,,0000*6B
$GPGGA,162026.000,5059.0361,N,00708.0434,E,1,09,1.0,98.6,M,47.6,M,,0000*66
$GPGGA,162027.000,5059.0382,N,00708.0477,E,1,09,1.0,99.0,M,47.6,M,,0000*6A
$GPGGA,162028.000,5059.0402,N,00708.0523,E,1,09,1.0,99.4,M,47.6,M,,0000*6E
$GPGGA,162029.000,5059.0422,N,00708.0570,E,1,09,1.0,99.9,M,47.6,M,,0000*66
$GPGGA,162030.000,5059.0441,N,00708.0611,E,1,09,1.0,100.3,M,47.6,M,,0000*54
$GPGGA,162031.000,5059.0458,N,00708.0641,E,1,09,1.0,100.7,M,47.6,M,,0000*5C
$GPGGA,162032.000,5059.0472,N,00708.0664,E,1,09,1.0,101.0,M,47.6,M,,0000*56
$GPGGA,162033.000,5059.0489,N,00708.0687,E,1,09,1.0,101.4,M,47.6,M,,0000*5A
$GPGGA,162034.000,5059.0507,N,00708.0707,E,1,09,1.0,101.8,M,47.6,M,,0000*5F
$GPGGA,162035.000,5059.0525,N,00708.0719,E,1,09,1.0,101.9,M,47.6,M,,0000*50
$GPGGA,162036.000,5059.0544,N,00708.0724,E,1,09,1.0,101.8,M,47.6,M,,0000*5B
$GPGGA,162037.000,5059.0563,N,00708.0726,E,1,09,1.0,101.8,M,47.6,M,,0000*5D
$GPGGA,162038.000,5059.0581,N,00708.0731,E,1,09,1.0,101.7,M,47.6,M,,0000*57
$GPGGA,162039.000,5059.0596,N,00708.0739,E,1,09,1.0,101.9,M,47.6,M,,0000*56
$GPGGA,162040.000,5059.0606,N,00708.0746,E,1,09,1.0,102.1,M,47.6,M,,0000*51
$GPGGA,162041.000,5059.0613,N,00708.0749,E,1,09,1.0,102.2,M,47.6,M,,0000*58
$GPGGA,162042.000,5059.0615,N,00708.0749,E,1,09,1.0,102.1,M,47.6,M,,0000*5E
$GPGGA,162043.000,5059.0621,N,00708.0745,E,1,09,1.0,101.7,M,47.6,M,,0000*51
$GPGGA,162044.000,5059.0630,N,00708.0729,E,1,09,1.0,101.4,M,47.6,M,,0000*5F
$GPGGA,162045.000,5059.0633,N,00708.0704,E,1,08,1.2,101.2,M,47.6,M,,0000*57
$GPGGA,162046.000,5059.0625,N,00708.0683,E,1,09,1.0,100.9,M,47.6,M,,0000*54
$GPGGA,162047.000,5059.0609,N,00708.0677,E,1,09,1.0,100.6,M,47.6,M,,0000*5F
$GPGGA,162048.000,5059.0591,N,00708.0687,E,1,09,1.0,100.5,M,47.6,M,,0000*5E
$GPGGA,162049.000,5059.0569,N,00708.0698,E,1,09,1.0,100.5,M,47.6,M,,0000*56
$GPGGA,162050.000,5059.0542,N,00708.0698,E,1,08,1.2,100.5,M,47.6,M,,0000*54
$GPGGA,162051.000,5059.0513,N,00708.0683,E,1,09,1.0,100.3,M,47.6,M,,0000*5E
$GPGGA,162052.000,5059.0485,N,00708.0661,E,1,09,1.0,100.1,M,47.6,M,,0000*5D
$GPGGA,162053.000,5059.0461,N,00708.0633,E,1,09,1.0,100.1,M,47.6,M,,0000*51
$GPGGA,162054.000,5059.0439,N,00708.0603,E,1,09,1.0,99.9,M,47.6,M,,0000*61
$GPGGA,162055.000,5059.0420,N,00708.0567,E,1,09,1.0,99.3,M,47.6,M,,0000*63
$GPGGA,162056.000,5059.0401,N,00708.0523,E,1,09,1.0,98.9,M,47.6,M,,0000*68
$GPGGA,162057.000,5059.0381,N,00708.0474,E,1,09,1.0,98.4,M,47.6,M,,0000*68
$GPGGA,162058.000,5059.0357,N,00708.0426,E,1,09,1.0,97.7,M,47.6,M,,0000*67
$GPGGA,162059.000,5059.0332,N,00708.0378,E,1,09,1.0,97.5,M,47.6,M,,0000*6B
$GPGGA,162100.000,5059.0307,N,00708.0329,E,1,09,1.0,97.0,M,47.6,M,,0000*61
$GPGGA,162101.000,5059.0280,N,00708.0281,E,1,09,1.0,96.5,M,47.6,M,,0000*69
$GPGGA,162102.000,5059.0253,N,00708.0234,E,1,09,1.0,96.4,M,47.6,M,,0000*6B
$GPGGA,162103.000,5059.0227,N,00708.0188,E,1,09,1.0,96.3,M,47.6,M,,0000*6A
$GPGGA,162104.000,5059.0201,N,00708.0142,E,1,09,1.0,96.4,M,47.6,M,,0000*68
$GPGGA,162105.000,5059.0177,N,00708.0098,E,1,09,1.0,96.2,M,47.6,M,,0000*6B
$GPGGA,162106.000,5059.0151,N,00708.0059,E,1,09,1.0,96.4,M,47.6,M,,0000*67
$GPGGA,162107.000,5059.0124,N,00708.0026,E,1,09,1.0,96.4,M,47.6,M,,0000*6C
$GPGGA,162108.000,5059.0099,N,00707.9994,E,1,09,1.0,96.3,M,47.6,M,,0000*65
$GPGGA,162109.000,5059.0077,N,00707.9957,E,1,09,1.0,96.0,M,47.6,M,,0000*68
$GPGGA,162110.000,5059.0058,N,00707.9920,E,1,09,1.0,95.8,M,47.6,M,,0000*66
$GPGGA,162111.000,5059.0043,N,00707.9887,E,1,09,1.0,95.5,M,47.6,M,,0000*6C
$GPGGA,162112.000,5059.0033,N,00707.9859,E,1,09,1.0,95.1,M,47.6,M,,0000*6F
$GPGGA,162113.000,5059.0027,N,00707.9837,E,1,09,1.0,94.7,M,47.6,M,,0000*64
$GPGGA,162114.000,5059.0024,N,00707.9820,E,1,09,1.0,94.4,M,47.6,M,,0000*65
$GPGGA,162115.000,5059.0025,N,00707.9802,E,1,09,1.0,94.0,M,47.6,M,,0000*61
$GPGGA,162116.000,5059.0030,N,00707.9776,E,1,09,1.0,93.4,M,47.6,M,,0000*69
$GPGGA,162117.000,5059.0039,N,00707.9737,E,1,09,1.0,93.0,M,47.6,M,,0000*60
$GPGGA,162118.000,5059.0051,N,00707.9687,E,1,09,1.0,93.2,M,47.6,M,,0000*69
$GPGGA,162119.000,5059.0065,N,00707.9632,E,1,09,1.0,93.4,M,47.6,M,,0000*67
$GPGGA,162120.000,5059.0080,N,00707.9578,E,1,09,1.0,93.4,M,47.6,M,,0000*6B
$GPGGA,162121.000,5059.0094,N,00707.9526,E,1,09,1.0,93.0,M,47.6,M,,0000*60
$GPGGA,162122.000,5059.0108,N,00707.9473,E,1,09,1.0,92.8,M,47.6,M,,0000*6F
$GPGGA,162123.000,5059.0120,N,00707.9420,E,1,09,1.0,92.7,M,47.6,M,,0000*6D
$GPGGA,162124.000,5059.0132,N,00707.9368,E,1,09,1.0,92.4,M,47.6,M,,0000*61
$GPGGA,162125.000,5059.0144,N,00707.9315,E,1,09,1.0,92.3,M,47.6,M,,0000*6C
$GPGGA,162126.000,5059.0157,N,00707.9263,E,1,09,1.0,92.1,M,47.6,M,,0000*6F
$GPGGA,162127.000,5059.0168,N,00707.9213,E,1,09,1.0,92.5,M,47.6,M,,0000*61
$GPGGA,162128.000,5059.0177,N,00707.9171,E,1,09,1.0,92.4,M,47.6,M,,0000*66
$GPGGA,162129.000,5059.0188,N,00707.9138,E,1,09,1.0,92.3,M,47.6,M,,0000*6D
$GPGGA,162130.000,5059.0205,N,00707.9116,E,1,09,1.0,92.1,M,47.6,M,,0000*6D
$GPGGA,162131.000,5059.0233,N,00707.9108,E,1,08,1.2,91.9,M,47.6,M,,0000*6E
$GPGGA,162132.000,5059.0273,N,00707.9108,E,1,08,1.2,91.7,M,47.6,M,,0000*67
$GPGGA,162133.000,5059.0321,N,00707.9108,E,1,09,1.0,91.3,M,47.6,M,,0000*67
$GPGGA,162134.000,5059.0370,N,00707.9105,E,1,09,1.0,91.1,M,47.6,M,,0000*6B
$GPGGA,162135.000,5059.0419,N,00707.9102,E,1,09,1.0,90.8,M,47.6,M,,0000*6D
$GPGGA,162136.000,5059.0467,N,00707.9097,E,1,09,1.0,90.4,M,47.6,M,,0000*66
$GPGGA,162137.000,5059.0514,N,00707.9092,E,1,09,1.0,90.2,M,47.6,M,,0000*61
$GPGGA,162138.000,5059.0560,N,00707.9088,E,1,09,1.0,90.0,M,47.6,M,,0000*64
$GPGGA,162139.000,5059.0605,N,00707.9085,E,1,09,1.0,89.8,M,47.6,M,,0000*68
$GPGGA,162140.000,5059.0653,N,00707.9082,E,1,09,1.0,90.0,M,47.6,M,,0000*62
$GPGGA,162141.000,5059.0700,N,00707.9077,E,1,09,1.0,90.3,M,47.6,M,,0000*6D
$GPGGA,162142.000,5059.0746,N,00707.9072,E,1,08,1.1,89.8,M,47.6,M,,0000*6A
$GPGGA,162143.000,5059.0794,N,00707.9066,E,1,08,1.1,90.0,M,47.6,M,,0000*61
$GPGGA,162144.000,5059.0840,N,00707.9063,E,1,08,1.1,89.9,M,47.6,M,,0000*64
$GPGGA,162145.000,5059.0882,N,00707.9061,E,1,08,1.1,89.9,M,47.6,M,,0000*69
$GPGGA,162146.000,5059.0919,N,00707.9064,E,1,08,1.1,89.8,M,47.6,M,,0000*6D
$GPGGA,162147.000,5059.0945,N,00707.9074,E,1,08,1.1,89.8,M,47.6,M,,0000*64
$GPGGA,162148.000,5059.0964,N,00707.9087,E,1,08,1.1,89.5,M,47.6,M,,0000*69
$GPGGA,162149.000,5059.0976,N,00707.9104,E,1,08,1.1,89.3,M,47.6,M,,0000*67
$GPGGA,162150.000,5059.0984,N,00707.9127,E,1,08,1.1,89.1,M,47.6,M,,0000*61
$GPGGA,162151.000,5059.0988,N,00707.9162,E,1,08,1.1,89.2,M,47.6,M,,0000*6E
$GPGGA,162152.000,5059.0985,N,00707.9209,E,1,08,1.1,89.5,M,47.6,M,,0000*69
$GPGGA,162153.000,5059.0977,N,00707.9263,E,1,08,1.1,89.8,M,47.6,M,,0000*64
$GPGGA,162154.000,5059.0969,N,00707.9321,E,1,08,1.1,89.9,M,47.6,M,,0000*6A
$GPGGA,162155.000,5059.0960,N,00707.9379,E,1,08,1.1,90.4,M,47.6,M,,0000*6A
$GPGGA,162156.000,5059.0953,N,00707.9436,E,1,08,1.1,91.4,M,47.6,M,,0000*64
$GPGGA,162157.000,5059.0948,N,00707.9492,E,1,08,1.1,91.8,M,47.6,M,,0000*6D
$GPGGA,162158.000,5059.0945,N,00707.9548,E,1,08,1.1,92.1,M,47.6,M,,0000*63
$GPGGA,162159.000,5059.0936,N,00707.9603,E,1,08,1.1,92.7,M,47.6,M,,0000*6C
$GPGGA,162200.000,5059.0919,N,00707.9656,E,1,08,1.1,93.4,M,47.6,M,,0000*6C
$GPGGA,162201.000,5059.0899,N,00707.9708,E,1,08,1.1,93.4,M,47.6,M,,0000*6E
$GPGGA,162202.000,5059.0880,N,00707.9759,E,1,08,1.1,93.8,M,47.6,M,,0000*6D
$GPGGA,162203.000,5059.0861,N,00707.9811,E,1,08,1.1,94.1,M,47.6,M,,0000*6E
$GPGGA,162204.000,5059.0844,N,00707.9865,E,1,08,1.1,94.3,M,47.6,M,,0000*6F
$GPGGA,162205.000,5059.0826,N,00707.9918,E,1,08,1.1,94.5,M,47.6,M,,0000*67
$GPGGA,162206.000,5059.0810,N,00707.9971,E,1,08,1.1,95.1,M,47.6,M,,0000*6B
$GPGGA,162207.000,5059.0797,N,00708.0026,E,1,08,1.1,95.6,M,47.6,M,,0000*60
$GPGGA,162208.000,5059.0787,N,00708.0082,E,1,08,1.1,96.0,M,47.6,M,,0000*65
$GPGGA,162209.000,5059.0778,N,00708.0138,E,1,08,1.1,96.2,M,47.6,M,,0000*66
$GPGGA,162210.000,5059.0770,N,00708.0194,E,1,08,1.1,96.4,M,47.6,M,,0000*66
$GPGGA,162211.000,5059.0760,N,00708.0249,E,1,08,1.1,96.4,M,47.6,M,,0000*65
$GPGGA,162212.000,5059.0751,N,00708.0304,E,1,08,1.1,97.1,M,47.6,M,,0000*68
$GPGGA,162213.000,5059.0744,N,00708.0361,E,1,08,1.1,97.3,M,47.6,M,,0000*6C
$GPGGA,162214.000,5059.0739,N,00708.0418,E,1,08,1.1,97.7,M,47.6,M,,0000*6C
$GPGGA,162215.000,5059.0734,N,00708.0476,E,1,08,1.1,97.8,M,47.6,M,,0000*67
$GPGGA,162216.000,5059.0727,N,00708.0532,E,1,08,1.1,98.2,M,47.6,M,,0000*62
$GPGGA,162217.000,5059.0712,N,00708.0581,E,1,08,1.1,97.0,M,47.6,M,,0000*60
$GPGGA,162218.000,5059.0691,N,00708.0623,E,1,08,1.1,97.2,M,47.6,M,,0000*6C
$GPGGA,162219.000,5059.0669,N,00708.0657,E,1,08,1.1,97.5,M,47.6,M,,0000*6E
$GPGGA,162220.000,5059.0646,N,00708.0680,E,1,08,1.1,97.9,M,47.6,M,,0000*6F
$GPGGA,162221.000,5059.0621,N,00708.0695,E,1,08,1.1,98.2,M,47.6,M,,0000*6F
$GPGGA,162222.000,5059.0594,N,00708.0706,E,1,08,1.1,98.2,M,47.6,M,,0000*6A
$GPGGA,162223.000,5059.0565,N,00708.0710,E,1,08,1.1,98.3,M,47.6,M,,0000*63
$GPGGA,162224.000,5059.0536,N,00708.0703,E,1,08,1.1,98.5,M,47.6,M,,0000*66
$GPGGA,162225.000,5059.0506,N,00708.0686,E,1,08,1.1,98.5,M,47.6,M,,0000*68
$GPGGA,162226.000,5059.0478,N,00708.0661,E,1,08,1.1,98.6,M,47.6,M,,0000*69
$GPGGA,162227.000,5059.0451,N,00708.0626,E,1,08,1.1,98.2,M,47.6,M,,0000*64
$GPGGA,162228.000,5059.0427,N,00708.0583,E,1,08,1.1,97.9,M,47.6,M,,0000*62
$GPGGA,162229.000,5059.0406,N,00708.0533,E,1,08,1.1,97.3,M,47.6,M,,0000*61
$GPGGA,162230.000,5059.0384,N,00708.0481,E,1,08,1.1,96.5,M,47.6,M,,0000*6B
$GPGGA,162231.000,5059.0359,N,00708.0429,E,1,08,1.1,95.8,M,47.6,M,,0000*66
$GPGGA,162232.000,5059.0332,N,00708.0378,E,1,08,1.1,95.2,M,47.6,M,,0000*61
$GPGGA,162233.000,5059.0306,N,00708.0327,E,1,08,1.1,94.6,M,47.6,M,,0000*68
$GPGGA,162234.000,5059.0279,N,00708.0277,E,1,08,1.1,94.1,M,47.6,M,,0000*65
$GPGGA,162235.000,5059.0252,N,00708.0228,E,1,08,1.1,93.8,M,47.6,M,,0000*69
$GPGGA,162236.000,5059.0227,N,00708.0181,E,1,08,1.1,93.7,M,47.6,M,,0000*67
$GPGGA,162237.000,5059.0203,N,00708.0135,E,1,08,1.1,93.2,M,47.6,M,,0000*6A
$GPGGA,162238.000,5059.0182,N,00708.0090,E,1,08,1.1,93.1,M,47.6,M,,0000*62
$GPGGA,162239.000,5059.0167,N,00708.0053,E,1,08,1.1,93.0,M,47.6,M,,0000*66
$GPGGA,162240.000,5059.0157,N,00708.0027,E,1,08,1.1,92.9,M,47.6,M,,0000*60
$GPGGA,162241.000,5059.0149,N,00708.0014,E,1,08,1.1,92.9,M,47.6,M,,0000*6E
$GPGGA,162242.000,5059.0145,N,00708.0008,E,1,08,1.1,92.9,M,47.6,M,,0000*6C
$GPGGA,162243.000,5059.0138,N,00708.0004,E,1,08,1.1,93.5,M,47.6,M,,0000*66
$GPGGA,162244.000,5059.0126,N,00708.0000,E,1,08,1.1,94.0,M,47.6,M,,0000*68
$GPGGA,162245.000,5059.0111,N,00707.9991,E,1,08,1.1,94.2,M,47.6,M,,0000*68
$GPGGA,162246.000,5059.0095,N,00707.9968,E,1,08,1.1,94.1,M,47.6,M,,0000*63
$GPGGA,162247.000,5059.0075,N,00707.9931,E,1,08,1.1,94.1,M,47.6,M,,0000*60
$GPGGA,162248.000,5059.0058,N,00707.9894,E,1,08,1.1,94.2,M,47.6,M,,0000*6D
$GPGGA,162249.000,5059.0046,N,00707.9862,E,1,08,1.1,94.1,M,47.6,M,,0000*69
$GPGGA,162250.000,5059.0039,N,00707.9838,E,1,08,1.1,94.0,M,47.6,M,,0000*67
$GPGGA,162251.000,5059.0031,N,00707.9820,E,1,08,1.1,94.1,M,47.6,M,,0000*66
$GPGGA,162252.000,5059.0018,N,00707.9808,E,1,08,1.1,93.8,M,47.6,M,,0000*6A
$GPGGA,162253.000,5058.9994,N,00707.9802,E,1,08,1.1,93.1,M,47.6,M,,0000*6D
$GPGGA,162254.000,5058.9964,N,00707.9793,E,1,08,1.1,92.9,M,47.6,M,,0000*6B
$GPGGA,162255.000,5058.9933,N,00707.9780,E,1,08,1.1,92.3,M,47.6,M,,0000*60
$GPGGA,162256.000,5058.9901,N,00707.9762,E,1,08,1.1,91.7,M,47.6,M,,0000*69
$GPGGA,162257.000,5058.9873,N,00707.9734,E,1,08,1.1,91.2,M,47.6,M,,0000*6A
$GPGGA,162258.000,5058.9846,N,00707.9700,E,1,08,1.1,90.5,M,47.6,M,,0000*62
$GPGGA,162259.000,5058.9818,N,00707.9667,E,1,08,1.1,90.0,M,47.6,M,,0000*6D
$GPGGA,162300.000,5058.9790,N,00707.9634,E,1,08,1.1,89.3,M,47.6,M,,0000*62
$GPGGA,162301.000,5058.9762,N,00707.9603,E,1,08,1.1,88.7,M,47.6,M,,0000*6F
$GPGGA,162302.000,5058.9733,N,00707.9571,E,1,08,1.1,88.2,M,47.6,M,,0000*6B
$GPGGA,162303.000,5058.9705,N,00707.9537,E,1,08,1.1,87.8,M,47.6,M,,0000*68
$GPGGA,162304.000,5058.9677,N,00707.9499,E,1,08,1.1,87.2,M,47.6,M,,0000*64
$GPGGA,162305.000,5058.9648,N,00707.9460,E,1,08,1.1,86.9,M,47.6,M,,0000*65
$GPGGA,162306.000,5058.9614,N,00707.9421,E,1,08,1.1,86.5,M,47.6,M,,0000*66
$GPGGA,162307.000,5058.9577,N,00707.9379,E,1,08,1.1,86.0,M,47.6,M,,0000*6E
$GPGGA,162308.000,5058.9538,N,00707.9339,E,1,08,1.1,85.7,M,47.6,M,,0000*6A
$GPGGA,162309.000,5058.9500,N,00707.9305,E,1,08,1.1,85.3,M,47.6,M,,0000*6B
$GPGGA,162310.000,5058.9465,N,00707.9277,E,1,08,1.1,85.0,M,47.6,M,,0000*66
$GPGGA,162311.000,5058.9434,N,00707.9254,E,1,08,1.1,84.8,M,47.6,M,,0000*6B
$GPGGA,162312.000,5058.9407,N,00707.9237,E,1,08,1.1,84.9,M,47.6,M,,0000*6C
$GPGGA,162313.000,5058.9387,N,00707.9225,E,1,08,1.1,85.0,M,47.6,M,,0000*69
$GPGGA,162314.000,5058.9377,N,00707.9220,E,1,08,1.1,85.0,M,47.6,M,,0000*64
$GPGGA,162315.000,5058.9373,N,00707.9218,E,1,08,1.1,85.3,M,47.6,M,,0000*69
$GPGGA,162316.000,5058.9370,N,00707.9216,E,1,08,1.1,85.6,M,47.6,M,,0000*62
$GPGGA,162317.000,5058.9365,N,00707.9213,E,1,08,1.1,86.1,M,47.6,M,,0000*66
$GPGGA,162318.000,5058.9360,N,00707.9212,E,1,08,1.1,86.3,M,47.6,M,,0000*6F
$GPGGA,162319.000,5058.9354,N,00707.9214,E,1,08,1.1,86.6,M,47.6,M,,0000*6A
$GPGGA,162320.000,5058.9341,N,00707.9224,E,1,08,1.1,86.7,M,47.6,M,,0000*66
$GPGGA,162321.000,5058.9326,N,00707.9248,E,1,08,1.1,87.1,M,47.6,M,,0000*6B
$GPGGA,162322.000,5058.9312,N,00707.9286,E,1,08,1.1,87.3,M,47.6,M,,0000*6F
$GPGGA,162323.000,5058.9299,N,00707.9335,E,1,08,1.1,87.3,M,47.6,M,,0000*65
$GPGGA,162324.000,5058.9284,N,00707.9396,E,1,08,1.1,87.3,M,47.6,M,,0000*67
$GPGGA,162325.000,5058.9267,N,00707.9466,E,1,08,1.1,87.3,M,47.6,M,,0000*63
$GPGGA,162326.000,5058.9249,N,00707.9541,E,1,08,1.1,87.3,M,47.6,M,,0000*68
$GPGGA,162327.000,5058.9230,N,00707.9619,E,1,08,1.1,87.5,M,47.6,M,,0000*6F
$GPGGA,162328.000,5058.9211,N,00707.9697,E,1,08,1.1,87.6,M,47.6,M,,0000*66
$GPGGA,162329.000,5058.9192,N,00707.9772,E,1,08,1.1,87.7,M,47.6,M,,0000*64
$GPGGA,162330.000,5058.9175,N,00707.9843,E,1,08,1.1,87.9,M,47.6,M,,0000*66
$GPGGA,162331.000,5058.9158,N,00707.9911,E,1,08,1.1,88.2,M,47.6,M,,0000*6A
$GPGGA,162332.000,5058.9142,N,00707.9975,E,1,08,1.1,88.4,M,47.6,M,,0000*66
$GPGGA,162333.000,5058.9128,N,00708.0034,E,1,08,1.1,88.5,M,47.6,M,,0000*60
$GPGGA,162334.000,5058.9115,N,00708.0088,E,1,08,1.1,88.8,M,47.6,M,,0000*63
$GPGGA,162335.000,5058.9103,N,00708.0136,E,1,08,1.1,89.3,M,47.6,M,,0000*6B
$GPGGA,162336.000,5058.9094,N,00708.0173,E,1,08,1.1,89.7,M,47.6,M,,0000*62
$GPGGA,162337.000,5058.9086,N,00708.0207,E,1,08,1.1,89.8,M,47.6,M,,0000*6F
$GPGGA,162338.000,5058.9077,N,00708.0250,E,1,08,1.1,89.7,M,47.6,M,,0000*63
$GPGGA,162339.000,5058.9070,N,00708.0301,E,1,08,1.1,89.9,M,47.6,M,,0000*6E
$GPGGA,162340.000,5058.9064,N,00708.0356,E,1,08,1.1,90.2,M,47.6,M,,0000*64
$GPGGA,162341.000,5058.9056,N,00708.0416,E,1,08,1.1,90.8,M,47.6,M,,0000*6D
$GPGGA,162342.000,5058.9049,N,00708.0480,E,1,08,1.1,91.0,M,47.6,M,,0000*66
$GPGGA,162343.000,5058.9045,N,00708.0543,E,1,08,1.1,91.0,M,47.6,M,,0000*65
$GPGGA,162344.000,5058.9043,N,00708.0598,E,1,08,1.1,90.9,M,47.6,M,,0000*6A
$GPGGA,162345.000,5058.9042,N,00708.0648,E,1,08,1.1,91.2,M,47.6,M,,0000*6E
$GPGGA,162346.000,5058.9044,N,00708.0700,E,1,08,1.1,91.2,M,47.6,M,,0000*66
$GPGGA,162347.000,5058.9047,N,00708.0756,E,1,08,1.1,91.2,M,47.6,M,,0000*67
$GPGGA,162348.000,5058.9049,N,00708.0817,E,1,08,1.1,91.0,M,47.6,M,,0000*6E
$GPGGA,162349.000,5058.9049,N,00708.0881,E,1,08,1.1,91.2,M,47.6,M,,0000*62
$GPGGA,162350.000,5058.9050,N,00708.0951,E,1,08,1.1,91.8,M,47.6,M,,0000*64
$GPGGA,162351.000,5058.9052,N,00708.1025,E,1,08,1.1,92.5,M,47.6,M,,0000*62
$GPGGA,162352.000,5058.9052,N,00708.1101,E,1,08,1.1,93.1,M,47.6,M,,0000*63
$GPGGA,162353.000,5058.9050,N,00708.1178,E,1,08,1.1,93.8,M,47.6,M,,0000*67
$GPGGA,162354.000,5058.9045,N,00708.1261,E,1,08,1.1,94.0,M,47.6,M,,0000*60
$GPGGA,162355.000,5058.9040,N,00708.1347,E,1,08,1.1,94.0,M,47.6,M,,0000*61
$GPGGA,162356.000,5058.9035,N,00708.1434,E,1,08,1.1,93.4,M,47.6,M,,0000*60
$GPGGA,162357.000,5058.9028,N,00708.1520,E,1,08,1.1,93.4,M,47.6,M,,0000*69
$GPGGA,162358.000,5058.9021,N,00708.1606,E,1,07,1.5,93.3,M,47.6,M,,0000*64
$GPGGA,162359.000,5058.9015,N,00708.1691,E,1,07,1.5,93.2,M,47.6,M,,0000*6D
$GPGGA,162400.000,5058.9011,N,00708.1774,E,1,08,1.1,93.1,M,47.6,M,,0000*60
$GPGGA,162401.000,5058.9006,N,00708.1852,E,1,08,1.1,93.4,M,47.6,M,,0000*69
$GPGGA,162402.000,5058.9001,N,00708.1918,E,1,08,1.1,93.4,M,47.6,M,,0000*62
$GPGGA,162403.000,5058.8999,N,00708.1963,E,1,08,1.1,93.1,M,47.6,M,,0000*63
$GPGGA,162404.000,5058.9002,N,00708.1987,E,1,08,1.1,93.0,M,47.6,M,,0000*65
$GPGGA,162405.000,5058.9011,N,00708.1998,E,1,08,1.1,92.8,M,47.6,M,,0000*61
$GPGGA,162406.000,5058.9024,N,00708.1998,E,1,08,1.1,92.9,M,47.6,M,,0000*65
$GPGGA,162407.000,5058.9035,N,00708.1987,E,1,08,1.1,93.1,M,47.6,M,,0000*63
$GPGGA,162408.000,5058.9040,N,00708.1970,E,1,08,1.1,93.0,M,47.6,M,,0000*67
$GPGGA,162409.000,5058.9038,N,00708.1948,E,1,08,1.1,92.8,M,47.6,M,,0000*6B
$GPGGA,162410.000,5058.9030,N,00708.1926,E,1,08,1.1,92.8,M,47.6,M,,0000*63
$GPGGA,162411.000,5058.9020,N,00708.1904,E,1,07,1.5,92.6,M,47.6,M,,0000*66
$GPGGA,162412.000,5058.9013,N,00708.1872,E,1,08,1.1,92.6,M,47.6,M,,0000*6E
$GPGGA,162413.000,5058.9011,N,00708.1826,E,1,08,1.1,92.5,M,47.6,M,,0000*6F
$GPGGA,162414.000,5058.9012,N,00708.1765,E,1,08,1.1,92.6,M,47.6,M,,0000*60
$GPGGA,162415.000,5058.9015,N,00708.1697,E,1,08,1.1,92.7,M,47.6,M,,0000*6B
$GPGGA,162416.000,5058.9021,N,00708.1623,E,1,08,1.1,93.0,M,47.6,M,,0000*66
$GPGGA,162417.000,5058.9029,N,00708.1544,E,1,08,1.1,92.9,M,47.6,M,,0000*65
$GPGGA,162418.000,5058.9036,N,00708.1467,E,1,08,1.1,92.9,M,47.6,M,,0000*64
$GPGGA,162419.000,5058.9042,N,00708.1393,E,1,08,1.1,92.7,M,47.6,M,,0000*64
$GPGGA,162420.000,5058.9045,N,00708.1321,E,1,08,1.1,92.8,M,47.6,M,,0000*6F
$GPGGA,162421.000,5058.9048,N,00708.1249,E,1,08,1.1,92.6,M,47.6,M,,0000*62
$GPGGA,162422.000,5058.9049,N,00708.1177,E,1,08,1.1,92.5,M,47.6,M,,0000*6D
$GPGGA,162423.000,5058.9049,N,00708.1105,E,1,08,1.1,92.5,M,47.6,M,,0000*69
$GPGGA,162424.000,5058.9048,N,00708.1033,E,1,08,1.1,92.3,M,47.6,M,,0000*6D
$GPGGA,162425.000,5058.9047,N,00708.0959,E,1,08,1.1,91.9,M,47.6,M,,0000*6E
$GPGGA,162426.000,5058.9047,N,00708.0885,E,1,08,1.1,91.5,M,47.6,M,,0000*61
$GPGGA,162427.000,5058.9047,N,00708.0816,E,1,08,1.1,91.4,M,47.6,M,,0000*6B
$GPGGA,162428.000,5058.9048,N,00708.0762,E,1,08,1.1,90.9,M,47.6,M,,0000*6B
$GPGGA,162429.000,5058.9047,N,00708.0721,E,1,08,1.1,90.4,M,47.6,M,,0000*6F
$GPGGA,162430.000,5058.9040,N,00708.0690,E,1,08,1.1,90.5,M,47.6,M,,0000*6A
$GPGGA,162431.000,5058.9024,N,00708.0673,E,1,08,1.1,90.4,M,47.6,M,,0000*65
$GPGGA,162432.000,5058.9003,N,00708.0671,E,1,08,1.1,90.7,M,47.6,M,,0000*62
$GPGGA,162433.000,5058.8981,N,00708.0676,E,1,08,1.1,90.4,M,47.6,M,,0000*65
$GPGGA,162434.000,5058.8957,N,00708.0678,E,1,08,1.1,90.4,M,47.6,M,,0000*67
$GPGGA,162435.000,5058.8928,N,00708.0677,E,1,08,1.1,90.5,M,47.6,M,,0000*60
$GPGGA,162436.000,5058.8895,N,00708.0678,E,1,08,1.1,90.4,M,47.6,M,,0000*6A
$GPGGA,162437.000,5058.8863,N,00708.0679,E,1,08,1.1,90.8,M,47.6,M,,0000*6F
$GPGGA,162438.000,5058.8830,N,00708.0681,E,1,08,1.1,90.7,M,47.6,M,,0000*6E
$GPGGA,162439.000,5058.8797,N,00708.0682,E,1,08,1.1,90.5,M,47.6,M,,0000*6C
$GPGGA,162440.000,5058.8762,N,00708.0680,E,1,08,1.1,90.9,M,47.6,M,,0000*66
$GPGGA,162441.000,5058.8726,N,00708.0678,E,1,08,1.1,90.8,M,47.6,M,,0000*61
$GPGGA,162442.000,5058.8690,N,00708.0676,E,1,08,1.1,90.7,M,47.6,M,,0000*6F
$GPGGA,162443.000,5058.8653,N,00708.0675,E,1,08,1.1,90.6,M,47.6,M,,0000*63
$GPGGA,162444.000,5058.8615,N,00708.0673,E,1,08,1.1,91.3,M,47.6,M,,0000*64
$GPGGA,162445.000,5058.8579,N,00708.0671,E,1,08,1.1,91.7,M,47.6,M,,0000*6A
$GPGGA,162446.000,5058.8545,N,00708.0670,E,1,08,1.1,91.9,M,47.6,M,,0000*69
$GPGGA,162447.000,5058.8515,N,00708.0669,E,1,08,1.1,92.0,M,47.6,M,,0000*6F
$GPGGA,162448.000,5058.8492,N,00708.0669,E,1,08,1.1,91.8,M,47.6,M,,0000*65
$GPGGA,162449.000,5058.8473,N,00708.0670,E,1,08,1.1,91.8,M,47.6,M,,0000*63
$GPGGA,162450.000,5058.8460,N,00708.0671,E,1,08,1.1,91.8,M,47.6,M,,0000*68
$GPGGA,162451.000,5058.8456,N,00708.0671,E,1,08,1.1,91.7,M,47.6,M,,0000*63
$GPGGA,162452.000,5058.8458,N,00708.0671,E,1,08,1.1,91.5,M,47.6,M,,0000*6C
$GPGGA,162453.000,5058.8465,N,00708.0671,E,1,08,1.1,91.6,M,47.6,M,,0000*60
$GPGGA,162454.000,5058.8474,N,00708.0671,E,1,08,1.1,91.8,M,47.6,M,,0000*69
$GPGGA,162455.000,5058.8479,N,00708.0670,E,1,08,1.1,92.7,M,47.6,M,,0000*68
$GPGGA,162456.000,5058.8478,N,00708.0671,E,1,08,1.1,92.9,M,47.6,M,,0000*65
$GPGGA,162457.000,5058.8472,N,00708.0683,E,1,08,1.1,92.9,M,47.6,M,,0000*63
$GPGGA,162458.000,5058.8467,N,00708.0709,E,1,08,1.1,93.2,M,47.6,M,,0000*61
$GPGGA,162459.000,5058.8470,N,00708.0745,E,1,07,1.6,93.4,M,47.6,M,,0000*60
$GPGGA,162500.000,5058.8476,N,00708.0788,E,1,08,1.1,93.6,M,47.6,M,,0000*60
$GPGGA,162501.000,5058.8479,N,00708.0834,E,1,08,1.1,93.8,M,47.6,M,,0000*68
$GPGGA,162502.000,5058.8481,N,00708.0882,E,1,08,1.1,93.7,M,47.6,M,,0000*6E
$GPGGA,162503.000,5058.8486,N,00708.0929,E,1,08,1.1,93.6,M,47.6,M,,0000*69
$GPGGA,162504.000,5058.8495,N,00708.0974,E,1,08,1.1,93.5,M,47.6,M,,0000*67
$GPGGA,162505.000,5058.8505,N,00708.1018,E,1,08,1.1,93.1,M,47.6,M,,0000*68
$GPGGA,162506.000,5058.8514,N,00708.1061,E,1,08,1.1,93.2,M,47.6,M,,0000*66
$GPGGA,162507.000,5058.8522,N,00708.1105,E,1,08,1.1,93.1,M,47.6,M,,0000*62
$GPGGA,162508.000,5058.8527,N,00708.1152,E,1,08,1.1,92.9,M,47.6,M,,0000*63
$GPGGA,162509.000,5058.8529,N,00708.1202,E,1,08,1.1,93.1,M,47.6,M,,0000*63
$GPGGA,162510.000,5058.8526,N,00708.1259,E,1,08,1.1,93.2,M,47.6,M,,0000*69
$GPGGA,162511.000,5058.8524,N,00708.1322,E,1,08,1.1,93.6,M,47.6,M,,0000*63
$GPGGA,162512.000,5058.8527,N,00708.1390,E,1,08,1.1,93.4,M,47.6,M,,0000*68
$GPGGA,162513.000,5058.8531,N,00708.1457,E,1,08,1.1,93.5,M,47.6,M,,0000*63
$GPGGA,162514.000,5058.8535,N,00708.1520,E,1,08,1.1,93.7,M,47.6,M,,0000*63
$GPGGA,162515.000,5058.8536,N,00708.1581,E,1,08,1.1,94.0,M,47.6,M,,0000*6A
$GPGGA,162516.000,5058.8535,N,00708.1642,E,1,08,1.1,94.3,M,47.6,M,,0000*65
$GPGGA,162517.000,5058.8534,N,00708.1703,E,1,08,1.1,94.8,M,47.6,M,,0000*6A
$GPGGA,162518.000,5058.8533,N,00708.1764,E,1,08,1.1,95.2,M,47.6,M,,0000*68
$GPGGA,162519.000,5058.8533,N,00708.1823,E,1,08,1.1,95.5,M,47.6,M,,0000*62
$GPGGA,162520.000,5058.8534,N,00708.1880,E,1,08,1.1,95.8,M,47.6,M,,0000*6B
$GPGGA,162521.000,5058.8535,N,00708.1936,E,1,08,1.1,96.4,M,47.6,M,,0000*68
$GPGGA,162522.000,5058.8535,N,00708.1991,E,1,08,1.1,96.4,M,47.6,M,,0000*66
$GPGGA,162523.000,5058.8534,N,00708.2044,E,1,08,1.1,96.6,M,47.6,M,,0000*66
$GPGGA,162524.000,5058.8533,N,00708.2093,E,1,08,1.1,97.0,M,47.6,M,,0000*6B
$GPGGA,162525.000,5058.8530,N,00708.2136,E,1,08,1.1,97.5,M,47.6,M,,0000*62
$GPGGA,162526.000,5058.8526,N,00708.2172,E,1,08,1.1,97.7,M,47.6,M,,0000*64
$GPGGA,162527.000,5058.8523,N,00708.2200,E,1,08,1.1,98.0,M,47.6,M,,0000*6E
$GPGGA,162528.000,5058.8523,N,00708.2223,E,1,08,1.1,98.5,M,47.6,M,,0000*65
$GPGGA,162529.000,5058.8523,N,00708.2242,E,1,08,1.1,99.1,M,47.6,M,,0000*66
$GPGGA,162530.000,5058.8523,N,00708.2251,E,1,08,1.1,99.7,M,47.6,M,,0000*6A
$GPGGA,162531.000,5058.8523,N,00708.2250,E,1,08,1.1,100.4,M,47.6,M,,0000*58
$GPGGA,162532.000,5058.8522,N,00708.2241,E,1,08,1.1,102.0,M,47.6,M,,0000*5C
$GPGGA,162533.000,5058.8522,N,00708.2225,E,1,08,1.1,103.2,M,47.6,M,,0000*5C
$GPGGA,162534.000,5058.8523,N,00708.2211,E,1,08,1.1,103.3,M,47.6,M,,0000*5C
$GPGGA,162535.000,5058.8523,N,00708.2198,E,1,08,1.1,103.8,M,47.6,M,,0000*54
$GPGGA,162536.000,5058.8524,N,00708.2187,E,1,08,1.1,103.6,M,47.6,M,,0000*50
$GPGGA,162537.000,5058.8522,N,00708.2177,E,1,08,1.1,103.4,M,47.6,M,,0000*5A
$GPGGA,162538.000,5058.8520,N,00708.2168,E,1,08,1.1,103.1,M,47.6,M,,0000*5C
$GPGGA,162539.000,5058.8516,N,00708.2161,E,1,08,1.1,102.6,M,47.6,M,,0000*57
$GPGGA,162540.000,5058.8514,N,00708.2157,E,1,08,1.1,102.4,M,47.6,M,,0000*5C
$GPGGA,162541.000,5058.8515,N,00708.2156,E,1,08,1.1,102.8,M,47.6,M,,0000*51
$GPGGA,162542.000,5058.8517,N,00708.2154,E,1,08,1.1,103.1,M,47.6,M,,0000*5A
$GPGGA,162543.000,5058.8523,N,00708.2144,E,1,08,1.1,103.3,M,47.6,M,,0000*5F
$GPGGA,162544.000,5058.8528,N,00708.2124,E,1,08,1.1,103.4,M,47.6,M,,0000*52
$GPGGA,162545.000,5058.8531,N,00708.2093,E,1,08,1.1,103.6,M,47.6,M,,0000*54
$GPGGA,162546.000,5058.8531,N,00708.2051,E,1,08,1.1,103.3,M,47.6,M,,0000*5C
$GPGGA,162547.000,5058.8530,N,00708.1998,E,1,08,1.1,103.1,M,47.6,M,,0000*51
$GPGGA,162548.000,5058.8530,N,00708.1940,E,1,08,1.1,102.8,M,47.6,M,,0000*53
$GPGGA,162549.000,5058.8530,N,00708.1878,E,1,08,1.1,102.3,M,47.6,M,,0000*53
$GPGGA,162550.000,5058.8529,N,00708.1814,E,1,08,1.1,101.8,M,47.6,M,,0000*51
$GPGGA,162551.000,5058.8529,N,00708.1750,E,1,08,1.1,101.4,M,47.6,M,,0000*53
$GPGGA,162552.000,5058.8530,N,00708.1686,E,1,08,1.1,101.0,M,47.6,M,,0000*56
$GPGGA,162553.000,5058.8531,N,00708.1620,E,1,08,1.1,100.5,M,47.6,M,,0000*5E
$GPGGA,162554.000,5058.8532,N,00708.1556,E,1,08,1.1,100.3,M,47.6,M,,0000*5E
$GPGGA,162555.000,5058.8532,N,00708.1494,E,1,08,1.1,99.9,M,47.6,M,,0000*6B
$GPGGA,162556.000,5058.8530,N,00708.1434,E,1,08,1.1,99.3,M,47.6,M,,0000*6A
$GPGGA,162557.000,5058.8527,N,00708.1376,E,1,08,1.1,99.0,M,47.6,M,,0000*6F
$GPGGA,162558.000,5058.8524,N,00708.1319,E,1,08,1.1,98.4,M,47.6,M,,0000*6F
$GPGGA,162559.000,5058.8524,N,00708.1265,E,1,08,1.1,98.0,M,47.6,M,,0000*60
$GPGGA,162600.000,5058.8527,N,00708.1212,E,1,08,1.1,97.3,M,47.6,M,,0000*60
$GPGGA,162601.000,5058.8527,N,00708.1157,E,1,08,1.1,96.7,M,47.6,M,,0000*66
$GPGGA,162602.000,5058.8521,N,00708.1099,E,1,08,1.1,96.7,M,47.6,M,,0000*60
$GPGGA,162603.000,5058.8512,N,00708.1042,E,1,08,1.1,96.4,M,47.6,M,,0000*64
$GPGGA,162604.000,5058.8499,N,00708.0987,E,1,08,1.1,95.9,M,47.6,M,,0000*6E
$GPGGA,162605.000,5058.8488,N,00708.0933,E,1,08,1.1,95.1,M,47.6,M,,0000*68
$GPGGA,162606.000,5058.8481,N,00708.0874,E,1,08,1.1,94.6,M,47.6,M,,0000*66
$GPGGA,162607.000,5058.8478,N,00708.0815,E,1,08,1.1,94.3,M,47.6,M,,0000*63
$GPGGA,162608.000,5058.8476,N,00708.0766,E,1,08,1.1,93.9,M,47.6,M,,0000*64
$GPGGA,162609.000,5058.8473,N,00708.0732,E,1,08,1.1,93.2,M,47.6,M,,0000*6A
$GPGGA,162610.000,5058.8472,N,00708.0711,E,1,08,1.1,92.9,M,47.6,M,,0000*68
$GPGGA,162611.000,5058.8471,N,00708.0698,E,1,08,1.1,92.5,M,47.6,M,,0000*66
$GPGGA,162612.000,5058.8469,N,00708.0692,E,1,08,1.1,92.1,M,47.6,M,,0000*62
$GPGGA,162613.000,5058.8465,N,00708.0682,E,1,08,1.1,91.9,M,47.6,M,,0000*65
$GPGGA,162614.000,5058.8453,N,00708.0670,E,1,08,1.1,92.1,M,47.6,M,,0000*61
$GPGGA,162615.000,5058.8433,N,00708.0662,E,1,08,1.1,92.3,M,47.6,M,,0000*67
$GPGGA,162616.000,5058.8404,N,00708.0662,E,1,08,1.1,92.2,M,47.6,M,,0000*61
$GPGGA,162617.000,5058.8367,N,00708.0664,E,1,08,1.1,92.2,M,47.6,M,,0000*64
$GPGGA,162618.000,5058.8326,N,00708.0667,E,1,08,1.1,92.1,M,47.6,M,,0000*6E
$GPGGA,162619.000,5058.8284,N,00708.0670,E,1,08,1.1,92.6,M,47.6,M,,0000*67
$GPGGA,162620.000,5058.8242,N,00708.0671,E,1,08,1.1,93.0,M,47.6,M,,0000*61
$GPGGA,162621.000,5058.8203,N,00708.0669,E,1,08,1.1,93.4,M,47.6,M,,0000*68
$GPGGA,162622.000,5058.8169,N,00708.0665,E,1,08,1.1,93.8,M,47.6,M,,0000*64
$GPGGA,162623.000,5058.8144,N,00708.0663,E,1,08,1.1,94.2,M,47.6,M,,0000*61
$GPGGA,162624.000,5058.8126,N,00708.0662,E,1,08,1.1,94.3,M,47.6,M,,0000*62
$GPGGA,162625.000,5058.8113,N,00708.0661,E,1,08,1.1,94.4,M,47.6,M,,0000*61
$GPGGA,162626.000,5058.8104,N,00708.0659,E,1,08,1.1,94.6,M,47.6,M,,0000*6D
$GPGGA,162627.000,5058.8099,N,00708.0657,E,1,08,1.1,94.7,M,47.6,M,,0000*66
$GPGGA,162628.000,5058.8094,N,00708.0653,E,1,08,1.1,94.6,M,47.6,M,,0000*61
$GPGGA,162629.000,5058.8087,N,00708.0638,E,1,08,1.1,94.4,M,47.6,M,,0000*6D
$GPGGA,162630.000,5058.8081,N,00708.0610,E,1,08,1.1,94.3,M,47.6,M,,0000*6E
$GPGGA,162631.000,5058.8080,N,00708.0566,E,1,08,1.1,93.9,M,47.6,M,,0000*61
$GPGGA,162632.000,5058.8081,N,00708.0505,E,1,08,1.1,93.4,M,47.6,M,,0000*6B
$GPGGA,162633.000,5058.8082,N,00708.0432,E,1,08,1.1,93.3,M,47.6,M,,0000*6B
$GPGGA,162634.000,5058.8084,N,00708.0348,E,1,08,1.1,93.4,M,47.6,M,,0000*67
$GPGGA,162635.000,5058.8086,N,00708.0253,E,1,08,1.1,93.1,M,47.6,M,,0000*6A
$GPGGA,162636.000,5058.8088,N,00708.0152,E,1,08,1.1,92.5,M,47.6,M,,0000*60
$GPGGA,162637.000,5058.8091,N,00708.0048,E,1,08,1.1,91.9,M,47.6,M,,0000*6C
$GPGGA,162638.000,5058.8093,N,00707.9942,E,1,07,1.6,92.0,M,47.6,M,,0000*66
$GPGGA,162639.000,5058.8094,N,00707.9837,E,1,07,1.6,91.8,M,47.6,M,,0000*68
$GPGGA,162640.000,5058.8096,N,00707.9734,E,1,08,1.1,91.4,M,47.6,M,,0000*6C
$GPGGA,162641.000,5058.8098,N,00707.9630,E,1,08,1.1,91.3,M,47.6,M,,0000*61
$GPGGA,162642.000,5058.8100,N,00707.9525,E,1,08,1.1,91.2,M,47.6,M,,0000*64
$GPGGA,162643.000,5058.8101,N,00707.9421,E,1,08,1.1,91.2,M,47.6,M,,0000*61
$GPGGA,162644.000,5058.8103,N,00707.9319,E,1,08,1.1,91.2,M,47.6,M,,0000*68
$GPGGA,162645.000,5058.8103,N,00707.9220,E,1,08,1.1,91.1,M,47.6,M,,0000*61
$GPGGA,162646.000,5058.8104,N,00707.9131,E,1,08,1.1,91.2,M,47.6,M,,0000*65
$GPGGA,162647.000,5058.8106,N,00707.9063,E,1,08,1.1,91.2,M,47.6,M,,0000*60
$GPGGA,162648.000,5058.8107,N,00707.9018,E,1,08,1.1,90.9,M,47.6,M,,0000*68
$GPGGA,162649.000,5058.8111,N,00707.8990,E,1,08,1.1,90.9,M,47.6,M,,0000*66
$GPGGA,162650.000,5058.8135,N,00707.8980,E,1,08,1.1,90.8,M,47.6,M,,0000*68
$GPGGA,162651.000,5058.8164,N,00707.8977,E,1,08,1.1,90.7,M,47.6,M,,0000*6A
$GPGGA,162652.000,5058.8197,N,00707.8976,E,1,08,1.1,91.0,M,47.6,M,,0000*62
$GPGGA,162653.000,5058.8235,N,00707.8975,E,1,07,1.2,91.6,M,47.6,M,,0000*61
$GPGGA,162654.000,5058.8277,N,00707.8975,E,1,08,1.1,91.7,M,47.6,M,,0000*6D
$GPGGA,162655.000,5058.8319,N,00707.8973,E,1,08,1.1,91.6,M,47.6,M,,0000*62
$GPGGA,162656.000,5058.8360,N,00707.8970,E,1,08,1.1,91.6,M,47.6,M,,0000*6C
$GPGGA,162657.000,5058.8401,N,00707.8968,E,1,08,1.1,91.1,M,47.6,M,,0000*63
$GPGGA,162658.000,5058.8441,N,00707.8969,E,1,08,1.1,90.7,M,47.6,M,,0000*6E
$GPGGA,162659.000,5058.8481,N,00707.8972,E,1,08,1.1,90.2,M,47.6,M,,0000*6C
$GPGGA,162700.000,5058.8518,N,00707.8976,E,1,08,1.1,90.4,M,47.6,M,,0000*62
$GPGGA,162701.000,5058.8554,N,00707.8977,E,1,08,1.1,90.1,M,47.6,M,,0000*6F
$GPGGA,162702.000,5058.8585,N,00707.8976,E,1,08,1.1,89.9,M,47.6,M,,0000*61
$GPGGA,162703.000,5058.8603,N,00707.8976,E,1,08,1.1,89.7,M,47.6,M,,0000*63
$GPGGA,162704.000,5058.8610,N,00707.8976,E,1,07,1.5,90.0,M,47.6,M,,0000*62
$GPGGA,162705.000,5058.8614,N,00707.8977,E,1,08,1.1,90.0,M,47.6,M,,0000*6D
$GPGGA,162706.000,5058.8618,N,00707.8979,E,1,08,1.1,90.2,M,47.6,M,,0000*6E
$GPGGA,162707.000,5058.8626,N,00707.8988,E,1,08,1.1,90.1,M,47.6,M,,0000*6F
$GPGGA,162708.000,5058.8634,N,00707.9009,E,1,08,1.1,90.1,M,47.6,M,,0000*62
$GPGGA,162709.000,5058.8637,N,00707.9040,E,1,08,1.1,89.8,M,47.6,M,,0000*6C
$GPGGA,162710.000,5058.8638,N,00707.9081,E,1,08,1.1,89.5,M,47.6,M,,0000*6B
$GPGGA,162711.000,5058.8639,N,00707.9126,E,1,08,1.1,89.5,M,47.6,M,,0000*67
$GPGGA,162712.000,5058.8640,N,00707.9171,E,1,08,1.1,89.4,M,47.6,M,,0000*69
$GPGGA,162713.000,5058.8641,N,00707.9215,E,1,08,1.1,89.5,M,47.6,M,,0000*69
$GPGGA,162714.000,5058.8643,N,00707.9260,E,1,08,1.1,89.5,M,47.6,M,,0000*6E
$GPGGA,162715.000,5058.8647,N,00707.9304,E,1,08,1.1,89.6,M,47.6,M,,0000*6B
$GPGGA,162716.000,5058.8653,N,00707.9350,E,1,08,1.1,89.4,M,47.6,M,,0000*6E
$GPGGA,162717.000,5058.8659,N,00707.9395,E,1,08,1.1,89.2,M,47.6,M,,0000*6A
$GPGGA,162718.000,5058.8663,N,00707.9440,E,1,08,1.1,89.4,M,47.6,M,,0000*65
$GPGGA,162719.000,5058.8666,N,00707.9485,E,1,08,1.1,89.4,M,47.6,M,,0000*68
$GPGGA,162720.000,5058.8671,N,00707.9531,E,1,08,1.1,89.4,M,47.6,M,,0000*6A
$GPGGA,162721.000,5058.8680,N,00707.9575,E,1,08,1.1,89.7,M,47.6,M,,0000*66
$GPGGA,162722.000,5058.8694,N,00707.9617,E,1,08,1.1,89.6,M,47.6,M,,0000*66
$GPGGA,162723.000,5058.8711,N,00707.9656,E,1,08,1.1,89.7,M,47.6,M,,0000*6F
$GPGGA,162724.000,5058.8730,N,00707.9692,E,1,08,1.1,90.2,M,47.6,M,,0000*6E
$GPGGA,162725.000,5058.8753,N,00707.9726,E,1,08,1.1,90.3,M,47.6,M,,0000*65
$GPGGA,162726.000,5058.8777,N,00707.9760,E,1,08,1.1,90.1,M,47.6,M,,0000*60
$GPGGA,162727.000,5058.8800,N,00707.9796,E,1,08,1.1,90.0,M,47.6,M,,0000*66
$GPGGA,162728.000,5058.8823,N,00707.9833,E,1,08,1.1,89.9,M,47.6,M,,0000*69
$GPGGA,162729.000,5058.8846,N,00707.9872,E,1,08,1.1,89.9,M,47.6,M,,0000*6E
$GPGGA,162730.000,5058.8868,N,00707.9912,E,1,08,1.1,89.9,M,47.6,M,,0000*6D
$GPGGA,162731.000,5058.8889,N,00707.9952,E,1,08,1.1,90.2,M,47.6,M,,0000*64
$GPGGA,162732.000,5058.8910,N,00707.9995,E,1,08,1.1,90.5,M,47.6,M,,0000*6A
$GPGGA,162733.000,5058.8931,N,00708.0038,E,1,08,1.1,90.8,M,47.6,M,,0000*6D
$GPGGA,162734.000,5058.8952,N,00708.0080,E,1,08,1.1,91.0,M,47.6,M,,0000*65
$GPGGA,162735.000,5058.8974,N,00708.0120,E,1,08,1.1,90.9,M,47.6,M,,0000*63
$GPGGA,162736.000,5058.8995,N,00708.0159,E,1,08,1.1,90.7,M,47.6,M,,0000*6F
$GPGGA,162737.000,5058.9016,N,00708.0196,E,1,08,1.1,90.4,M,47.6,M,,0000*6D
$GPGGA,162738.000,5058.9034,N,00708.0226,E,1,08,1.1,90.4,M,47.6,M,,0000*6A
$GPGGA,162739.000,5058.9046,N,00708.0244,E,1,08,1.1,90.5,M,47.6,M,,0000*6B
$GPGGA,162740.000,5058.9055,N,00708.0251,E,1,08,1.1,90.3,M,47.6,M,,0000*65
$GPGGA,162741.000,5058.9063,N,00708.0250,E,1,08,1.1,90.1,M,47.6,M,,0000*62
$GPGGA,162742.000,5058.9073,N,00708.0238,E,1,08,1.1,89.8,M,47.6,M,,0000*6F
$GPGGA,162743.000,5058.9087,N,00708.0213,E,1,08,1.1,89.4,M,47.6,M,,0000*60
$GPGGA,162744.000,5058.9098,N,00708.0179,E,1,08,1.1,89.2,M,47.6,M,,0000*60
